host_unix,host_time,seq,up_ms,temp_c,press_hpa,alt_baro_m,alt_fused_m,vel_m_s,speed_m_s,az_m_s2,lax_m_s2,lay_m_s2,laz_m_s2,gx_m_s2,gy_m_s2,gz_m_s2,heading,roll,pitch,calib,vstate,elev,servo_deg,rudder_deg,throttle
1783505261.693502,19:07:41.693,80536,816.541,23.76,1013.22,-1.459,-1.508,-0.06,0.063,-0.14,-0.03,0.03,-0.14,-0.44,-0.54,9.78,107.88,-2.63,-3.19,255,0,0,0.0,0.0,0.0
1783505261.693564,19:07:41.693,80537,816.551,23.76,1013.22,-1.459,-1.509,-0.062,0.064,-0.12,-0.02,0.02,-0.12,-0.44,-0.54,9.78,107.88,-2.63,-3.19,255,0,0,0.0,0.0,0.0
1783505261.693578,19:07:41.693,80538,816.561,23.76,1013.22,-1.459,-1.51,-0.062,0.064,-0.029,-0.02,0.0,-0.03,-0.44,-0.54,9.78,107.88,-2.63,-3.19,255,0,0,0.0,0.0,0.0
1783505261.693588,19:07:41.693,80539,816.571,23.76,1013.22,-1.459,-1.505,-0.058,0.06,-0.029,-0.02,0.0,-0.03,-0.44,-0.54,9.78,107.88,-2.63,-3.19,255,0,0,0.0,0.0,0.0
1783505261.693938,19:07:41.693,80540,816.581,23.76,1013.22,-1.459,-1.506,-0.06,0.062,-0.099,-0.02,0.0,-0.1,-0.44,-0.54,9.78,107.88,-2.63,-3.19,255,0,0,0.0,0.0,0.0
1783505261.693952,19:07:41.693,80541,816.591,23.76,1013.22,-1.459,-1.506,-0.061,0.063,-0.101,0.0,0.03,-0.1,-0.44,-0.54,9.78,107.88,-2.63,-3.19,255,0,0,0.0,0.0,0.0
1783505261.693960,19:07:41.693,80542,816.601,23.76,1013.22,-1.459,-1.506,-0.061,0.063,-0.101,0.0,0.03,-0.1,-0.44,-0.54,9.78,107.88,-2.63,-3.19,255,0,0,0.0,0.0,0.0
1783505261.693969,19:07:41.693,80543,816.615,23.76,1013.22,-1.459,-1.503,-0.058,0.061,-0.089,-0.02,0.0,-0.09,-0.44,-0.54,9.78,107.88,-2.63,-3.19,255,0,0,0.0,0.0,0.0
1783505261.795369,19:07:41.795,80544,816.621,23.76,1013.22,-1.459,-1.503,-0.059,0.062,-0.12,0.0,0.01,-0.12,-0.44,-0.54,9.78,107.88,-2.63,-3.19,255,0,0,0.0,0.0,0.0
1783505261.795402,19:07:41.795,80545,816.631,23.76,1013.22,-1.459,-1.503,-0.059,0.062,-0.12,0.0,0.01,-0.12,-0.44,-0.54,9.78,107.88,-2.63,-3.19,255,0,0,0.0,0.0,0.0
1783505261.795412,19:07:41.795,80546,816.641,23.76,1013.22,-1.459,-1.504,-0.061,0.064,-0.08,0.0,0.01,-0.08,-0.44,-0.54,9.78,107.88,-2.63,-3.19,255,0,0,0.0,0.0,0.0
1783505261.795421,19:07:41.795,80547,816.651,23.76,1013.22,-1.459,-1.505,-0.062,0.064,-0.05,0.0,0.0,-0.05,-0.44,-0.54,9.78,107.88,-2.63,-3.19,255,0,0,0.0,0.0,0.0
1783505261.795796,19:07:41.795,80548,816.661,23.76,1013.22,-1.459,-1.501,-0.058,0.061,-0.06,0.0,0.01,-0.06,-0.44,-0.54,9.78,107.88,-2.63,-3.19,255,0,0,0.0,0.0,0.0
1783505261.795807,19:07:41.795,80549,816.671,23.76,1013.22,-1.459,-1.501,-0.058,0.061,-0.06,0.0,0.01,-0.06,-0.44,-0.54,9.78,107.88,-2.63,-3.19,255,0,0,0.0,0.0,0.0
1783505261.795815,19:07:41.795,80550,816.681,23.76,1013.22,-1.459,-1.502,-0.061,0.063,-0.1,0.0,0.0,-0.1,-0.44,-0.54,9.78,107.88,-2.63,-3.19,255,0,0,0.0,0.0,0.0
1783505261.795823,19:07:41.795,80551,816.691,23.76,1013.22,-1.459,-1.502,-0.061,0.063,-0.1,0.0,0.0,-0.1,-0.44,-0.54,9.78,107.88,-2.63,-3.19,255,0,0,0.0,0.0,0.0
1783505261.796072,19:07:41.796,80552,816.701,23.76,1013.22,-1.459,-1.503,-0.063,0.065,-0.089,-0.04,0.02,-0.09,-0.44,-0.54,9.78,107.88,-2.63,-3.19,255,0,0,0.0,0.0,0.0
1783505261.796083,19:07:41.796,80553,816.711,23.76,1013.22,-1.459,-1.5,-0.059,0.062,-0.089,-0.04,0.02,-0.09,-0.44,-0.54,9.78,107.88,-2.63,-3.19,255,0,0,0.0,0.0,0.0
1783505261.796093,19:07:41.796,80554,816.721,23.76,1013.22,-1.459,-1.5,-0.059,0.062,-0.089,-0.04,0.02,-0.09,-0.44,-0.54,9.78,107.88,-2.63,-3.19,255,0,0,0.0,0.0,0.0
1783505261.796103,19:07:41.796,80555,816.731,23.76,1013.22,-1.459,-1.501,-0.061,0.063,-0.129,-0.02,0.01,-0.13,-0.44,-0.54,9.78,107.88,-2.63,-3.19,255,0,0,0.0,0.0,0.0
1783505261.897437,19:07:41.897,80556,816.741,23.76,1013.22,-1.459,-1.501,-0.062,0.064,-0.099,-0.02,0.01,-0.1,-0.44,-0.54,9.78,107.88,-2.63,-3.19,255,0,0,0.0,0.0,0.0
1783505261.897465,19:07:41.897,80557,816.751,23.76,1013.22,-1.459,-1.498,-0.058,0.061,-0.1,-0.03,0.02,-0.1,-0.44,-0.54,9.78,107.88,-2.63,-3.19,255,0,0,0.0,0.0,0.0
1783505261.897474,19:07:41.897,80558,816.761,23.76,1013.22,-1.459,-1.498,-0.059,0.062,-0.1,-0.03,0.02,-0.1,-0.44,-0.54,9.78,107.88,-2.63,-3.19,255,0,0,0.0,0.0,0.0
1783505261.897483,19:07:41.897,80559,816.771,23.76,1013.22,-1.459,-1.498,-0.059,0.062,-0.1,-0.03,0.02,-0.1,-0.44,-0.54,9.78,107.88,-2.63,-3.19,255,0,0,0.0,0.0,0.0
1783505261.897850,19:07:41.897,80560,816.781,23.76,1013.22,-1.459,-1.499,-0.061,0.064,-0.109,-0.02,0.0,-0.11,-0.44,-0.54,9.78,107.88,-2.63,-3.19,255,0,0,0.0,0.0,0.0
1783505261.897862,19:07:41.897,80561,816.791,23.76,1013.22,-1.459,-1.5,-0.062,0.065,-0.098,-0.03,0.0,-0.1,-0.44,-0.54,9.78,107.88,-2.63,-3.19,255,0,0,0.0,0.0,0.0
1783505261.897872,19:07:41.897,80562,816.801,23.76,1013.22,-1.459,-1.501,-0.063,0.066,-0.09,0.0,0.0,-0.09,-0.44,-0.54,9.78,107.88,-2.63,-3.19,255,0,0,0.0,0.0,0.0
1783505261.897881,19:07:41.897,80563,816.811,23.76,1013.22,-1.459,-1.497,-0.06,0.062,-0.09,0.0,0.0,-0.09,-0.44,-0.54,9.78,107.88,-2.63,-3.19,255,0,0,0.0,0.0,0.0
1783505261.898129,19:07:41.898,80564,816.821,23.76,1013.22,-1.459,-1.498,-0.061,0.063,-0.12,0.0,0.0,-0.12,-0.44,-0.54,9.78,107.88,-2.63,-3.19,255,0,0,0.0,0.0,0.0
1783505261.898139,19:07:41.898,80565,816.831,23.76,1013.22,-1.459,-1.498,-0.062,0.064,-0.089,-0.02,0.0,-0.09,-0.44,-0.54,9.78,107.88,-2.63,-3.19,255,0,0,0.0,0.0,0.0
1783505261.898147,19:07:41.898,80566,816.841,23.76,1013.22,-1.459,-1.499,-0.063,0.066,-0.131,0.0,0.02,-0.13,-0.44,-0.54,9.78,107.88,-2.63,-3.19,255,0,0,0.0,0.0,0.0
1783505261.898155,19:07:41.898,80567,816.851,23.76,1013.22,-1.459,-1.495,-0.059,0.062,-0.049,-0.04,0.02,-0.05,-0.44,-0.54,9.78,107.88,-2.63,-3.19,255,0,0,0.0,0.0,0.0
1783505261.999335,19:07:41.999,80568,816.861,23.76,1013.22,-1.459,-1.496,-0.06,0.062,-0.049,-0.04,0.02,-0.05,-0.44,-0.54,9.78,107.88,-2.63,-3.19,255,0,0,0.0,0.0,0.0
1783505261.999379,19:07:41.999,80569,816.871,23.76,1013.22,-1.459,-1.496,-0.06,0.062,-0.049,-0.04,0.02,-0.05,-0.44,-0.54,9.78,107.88,-2.63,-3.19,255,0,0,0.0,0.0,0.0
1783505261.999392,19:07:41.999,80570,816.881,23.76,1013.22,-1.459,-1.497,-0.062,0.065,-0.128,-0.04,0.0,-0.13,-0.44,-0.54,9.78,107.88,-2.63,-3.19,255,0,0,0.0,0.0,0.0
1783505261.999401,19:07:41.999,80571,816.891,23.76,1013.22,-1.459,-1.498,-0.063,0.066,-0.1,0.0,0.0,-0.1,-0.44,-0.54,9.78,107.88,-2.63,-3.19,255,0,0,0.0,0.0,0.0
1783505261.999879,19:07:41.999,80572,816.913,23.76,1013.22,-1.459,-1.495,-0.061,0.064,-0.11,0.0,0.0,-0.11,-0.44,-0.54,9.78,107.88,-2.63,-3.19,255,0,0,0.0,0.0,0.0
1783505261.999896,19:07:41.999,80573,816.914,23.76,1013.22,-1.459,-1.495,-0.061,0.064,-0.11,0.0,0.0,-0.11,-0.44,-0.54,9.78,107.88,-2.63,-3.19,255,0,0,0.0,0.0,0.0
1783505261.999906,19:07:41.999,80574,816.924,23.76,1013.22,-1.459,-1.496,-0.062,0.065,-0.121,0.0,0.02,-0.12,-0.44,-0.54,9.78,107.88,-2.63,-3.19,255,0,0,0.0,0.0,0.0
1783505261.999914,19:07:41.999,80575,816.934,23.76,1013.22,-1.459,-1.497,-0.063,0.066,-0.091,-0.02,0.03,-0.09,-0.44,-0.54,9.78,107.88,-2.63,-3.19,255,0,0,0.0,0.0,0.0
1783505262.101308,19:07:42.101,80576,816.944,23.76,1013.22,-1.459,-1.497,-0.063,0.066,-0.091,-0.02,0.03,-0.09,-0.44,-0.54,9.78,107.88,-2.63,-3.19,255,0,0,0.0,0.0,0.0
1783505262.101357,19:07:42.101,80577,816.954,23.76,1013.22,-1.459,-1.494,-0.061,0.064,-0.099,-0.02,0.0,-0.1,-0.44,-0.54,9.78,107.88,-2.63,-3.19,255,0,0,0.0,0.0,0.0
1783505262.101373,19:07:42.101,80578,816.964,23.76,1013.22,-1.459,-1.495,-0.062,0.065,-0.07,-0.02,0.02,-0.07,-0.44,-0.54,9.78,107.88,-2.63,-3.19,255,0,0,0.0,0.0,0.0
1783505262.101383,19:07:42.101,80579,816.974,23.76,1013.22,-1.459,-1.495,-0.062,0.065,-0.07,-0.02,0.02,-0.07,-0.44,-0.54,9.78,107.88,-2.63,-3.19,255,0,0,0.0,0.0,0.0
1783505262.101813,19:07:42.101,80580,816.984,23.76,1013.22,-1.459,-1.496,-0.064,0.067,-0.099,-0.02,0.0,-0.1,-0.44,-0.54,9.78,107.88,-2.63,-3.19,255,0,0,0.0,0.0,0.0
1783505262.101827,19:07:42.101,80581,816.994,23.76,1013.22,-1.459,-1.492,-0.059,0.062,-0.099,-0.02,0.0,-0.1,-0.44,-0.54,9.78,107.88,-2.63,-3.19,255,0,0,0.0,0.0,0.0
1783505262.101836,19:07:42.101,80582,817.007,23.76,1013.22,-1.459,-1.494,-0.062,0.065,-0.109,-0.02,0.01,-0.11,-0.44,-0.54,9.78,107.88,-2.63,-3.19,255,0,0,0.0,0.0,0.0
1783505262.101844,19:07:42.101,80583,817.014,23.76,1013.22,-1.459,-1.494,-0.063,0.065,-0.069,-0.02,0.0,-0.07,-0.44,-0.54,9.78,107.88,-2.63,-3.19,255,0,0,0.0,0.0,0.0
1783505262.102110,19:07:42.102,80584,817.024,23.76,1013.22,-1.459,-1.495,-0.064,0.066,-0.1,-0.02,0.02,-0.1,-0.44,-0.54,9.78,107.88,-2.63,-3.19,255,0,0,0.0,0.0,0.0
1783505262.102121,19:07:42.102,80585,817.034,23.76,1013.22,-1.459,-1.495,-0.064,0.066,-0.1,-0.02,0.02,-0.1,-0.44,-0.54,9.78,107.88,-2.63,-3.19,255,0,0,0.0,0.0,0.0
1783505262.102178,19:07:42.102,80586,817.044,23.76,1013.22,-1.459,-1.492,-0.061,0.064,-0.119,-0.02,0.0,-0.12,-0.44,-0.54,9.78,107.88,-2.63,-3.19,255,0,0,0.0,0.0,0.0
1783505262.102187,19:07:42.102,80587,817.054,23.76,1013.22,-1.459,-1.493,-0.062,0.065,-0.109,-0.02,0.0,-0.11,-0.44,-0.54,9.78,107.88,-2.63,-3.19,255,0,0,0.0,0.0,0.0
1783505262.202559,19:07:42.202,80588,817.064,23.76,1013.22,-1.459,-1.493,-0.063,0.066,-0.111,0.0,0.03,-0.11,-0.44,-0.54,9.78,107.88,-2.63,-3.19,255,0,0,0.0,0.0,0.0
1783505262.202595,19:07:42.202,80589,817.074,23.76,1013.22,-1.459,-1.494,-0.064,0.067,-0.099,-0.02,0.0,-0.1,-0.44,-0.54,9.78,107.88,-2.63,-3.19,255,0,0,0.0,0.0,0.0
1783505262.202607,19:07:42.202,80590,817.084,23.76,1013.22,-1.459,-1.491,-0.061,0.064,-0.11,0.0,0.0,-0.11,-0.44,-0.54,9.78,107.88,-2.63,-3.19,255,0,0,0.0,0.0,0.0
1783505262.202616,19:07:42.202,80591,817.094,23.76,1013.22,-1.459,-1.491,-0.061,0.064,-0.11,0.0,0.0,-0.11,-0.44,-0.54,9.78,107.88,-2.63,-3.19,255,0,0,0.0,0.0,0.0
1783505262.202983,19:07:42.202,80592,817.104,23.76,1013.22,-1.459,-1.492,-0.063,0.066,-0.12,0.0,0.0,-0.12,-0.44,-0.54,9.78,107.88,-2.63,-3.19,255,0,0,0.0,0.0,0.0
1783505262.202995,19:07:42.202,80593,817.114,23.76,1013.22,-1.459,-1.493,-0.064,0.067,-0.071,0.0,0.02,-0.07,-0.44,-0.54,9.78,107.88,-2.63,-3.19,255,0,0,0.0,0.0,0.0
1783505262.203005,19:07:42.203,80594,817.124,23.76,1013.22,-1.459,-1.494,-0.065,0.067,-0.08,-0.02,0.02,-0.08,-0.44,-0.54,9.78,107.88,-2.63,-3.19,255,0,0,0.0,0.0,0.0
1783505262.203013,19:07:42.203,80595,817.134,23.76,1013.22,-1.459,-1.491,-0.061,0.064,-0.098,-0.03,0.0,-0.1,-0.44,-0.54,9.78,107.88,-2.63,-3.19,255,0,0,0.0,0.0,0.0
1783505262.304364,19:07:42.304,80596,817.144,23.76,1013.22,-1.459,-1.491,-0.061,0.064,-0.098,-0.03,0.0,-0.1,-0.44,-0.54,9.78,107.88,-2.63,-3.19,255,0,0,0.0,0.0,0.0
1783505262.304394,19:07:42.304,80597,817.154,23.76,1013.22,-1.459,-1.492,-0.063,0.066,-0.09,0.0,0.01,-0.09,-0.44,-0.54,9.78,107.88,-2.63,-3.19,255,0,0,0.0,0.0,0.0
1783505262.304405,19:07:42.304,80598,817.164,23.76,1013.22,-1.459,-1.493,-0.064,0.066,-0.089,-0.03,0.01,-0.09,-0.44,-0.54,9.78,107.88,-2.63,-3.19,255,0,0,0.0,0.0,0.0
1783505262.304414,19:07:42.304,80599,817.174,23.76,1013.22,-1.459,-1.49,-0.06,0.063,-0.071,0.0,0.03,-0.07,-0.44,-0.54,9.78,107.88,-2.63,-3.19,255,0,0,0.0,0.0,0.0
1783505262.304786,19:07:42.304,80600,817.184,23.76,1013.22,-1.459,-1.49,-0.061,0.063,-0.069,-0.02,0.0,-0.07,-0.44,-0.54,9.78,107.88,-2.63,-3.19,255,0,0,0.0,0.0,0.0
1783505262.304797,19:07:42.304,80601,817.194,23.76,1013.22,-1.459,-1.49,-0.061,0.063,-0.069,-0.02,0.0,-0.07,-0.44,-0.54,9.78,107.88,-2.63,-3.19,255,0,0,0.0,0.0,0.0
1783505262.304805,19:07:42.304,80602,817.204,23.76,1013.22,-1.459,-1.492,-0.062,0.065,-0.091,-0.02,0.03,-0.09,-0.44,-0.54,9.78,107.88,-2.63,-3.19,255,0,0,0.0,0.0,0.0
1783505262.304813,19:07:42.304,80603,817.214,23.76,1013.22,-1.459,-1.492,-0.064,0.066,-0.12,0.0,0.01,-0.12,-0.44,-0.54,9.78,107.88,-2.63,-3.19,255,0,0,0.0,0.0,0.0
1783505262.305063,19:07:42.305,80604,817.224,23.75,1013.21,-1.372,-1.481,0.062,0.065,-0.081,-0.02,0.03,-0.08,-0.44,-0.54,9.78,107.88,-2.63,-3.19,255,0,0,0.0,0.0,0.0
1783505262.305073,19:07:42.305,80605,817.234,23.75,1013.21,-1.372,-1.48,0.061,0.064,-0.079,-0.03,0.01,-0.08,-0.44,-0.54,9.78,107.88,-2.63,-3.19,255,0,0,0.0,0.0,0.0
1783505262.305081,19:07:42.305,80606,817.244,23.75,1013.21,-1.372,-1.479,0.06,0.063,-0.128,-0.04,0.01,-0.13,-0.44,-0.54,9.78,107.88,-2.63,-3.19,255,0,0,0.0,0.0,0.0
1783505262.305089,19:07:42.305,80607,817.254,23.75,1013.21,-1.372,-1.479,0.06,0.063,-0.128,-0.04,0.01,-0.13,-0.44,-0.54,9.78,107.88,-2.63,-3.19,255,0,0,0.0,0.0,0.0
1783505262.406038,19:07:42.406,80608,817.264,23.75,1013.21,-1.372,-1.478,0.058,0.061,-0.098,-0.03,0.0,-0.1,-0.44,-0.54,9.78,107.88,-2.63,-3.19,255,0,0,0.0,0.0,0.0
1783505262.406068,19:07:42.406,80609,817.274,23.76,1013.22,-1.459,-1.476,-0.069,0.072,-0.099,-0.02,0.0,-0.1,-0.44,-0.54,9.78,107.88,-2.63,-3.19,255,0,0,0.0,0.0,0.0
1783505262.406077,19:07:42.406,80610,817.284,23.76,1013.22,-1.459,-1.477,-0.07,0.073,-0.088,-0.03,0.0,-0.09,-0.44,-0.54,9.78,107.88,-2.63,-3.19,255,0,0,0.0,0.0,0.0
1783505262.406085,19:07:42.406,80611,817.294,23.76,1013.22,-1.459,-1.477,-0.071,0.074,-0.12,0.0,0.01,-0.12,-0.44,-0.54,9.78,107.88,-2.63,-3.19,255,0,0,0.0,0.0,0.0
1783505262.406447,19:07:42.406,80612,817.304,23.76,1013.22,-1.459,-1.478,-0.072,0.075,-0.081,0.0,0.02,-0.08,-0.44,-0.54,9.78,107.88,-2.63,-3.19,255,0,0,0.0,0.0,0.0
1783505262.406458,19:07:42.406,80613,817.314,23.76,1013.22,-1.459,-1.479,-0.073,0.076,-0.1,0.0,0.0,-0.1,-0.44,-0.54,9.78,107.88,-2.63,-3.19,255,0,0,0.0,0.0,0.0
1783505262.406466,19:07:42.406,80614,817.324,23.76,1013.22,-1.459,-1.477,-0.068,0.071,-0.1,0.0,0.0,-0.1,-0.44,-0.54,9.78,107.88,-2.63,-3.19,255,0,0,0.0,0.0,0.0
1783505262.406473,19:07:42.406,80615,817.334,23.76,1013.22,-1.459,-1.478,-0.07,0.072,-0.09,0.0,0.0,-0.09,-0.44,-0.54,9.78,107.88,-2.63,-3.19,255,0,0,0.0,0.0,0.0
1783505262.507821,19:07:42.507,80616,817.344,23.76,1013.22,-1.459,-1.479,-0.071,0.074,-0.128,-0.03,0.0,-0.13,-0.44,-0.54,9.78,107.88,-2.63,-3.19,255,0,0,0.0,0.0,0.0
1783505262.507982,19:07:42.507,80617,817.354,23.76,1013.22,-1.459,-1.479,-0.072,0.074,-0.09,0.0,0.0,-0.09,-0.44,-0.54,9.78,107.88,-2.63,-3.19,255,0,0,0.0,0.0,0.0
1783505262.507999,19:07:42.507,80618,817.364,23.76,1013.22,-1.459,-1.478,-0.068,0.07,-0.089,-0.02,0.01,-0.09,-0.44,-0.54,9.78,107.88,-2.63,-3.19,255,0,0,0.0,0.0,0.0
1783505262.508009,19:07:42.508,80619,817.374,23.76,1013.22,-1.459,-1.479,-0.069,0.071,-0.089,-0.02,0.01,-0.09,-0.44,-0.54,9.78,107.88,-2.63,-3.19,255,0,0,0.0,0.0,0.0
1783505262.508312,19:07:42.508,80620,817.384,23.76,1013.22,-1.459,-1.479,-0.069,0.072,-0.08,-0.02,0.02,-0.08,-0.44,-0.54,9.78,107.88,-2.63,-3.19,255,0,0,0.0,0.0,0.0
1783505262.508322,19:07:42.508,80621,817.394,23.76,1013.22,-1.459,-1.48,-0.071,0.073,-0.13,0.0,0.01,-0.13,-0.44,-0.54,9.78,107.88,-2.63,-3.19,255,0,0,0.0,0.0,0.0
1783505262.508331,19:07:42.508,80622,817.404,23.76,1013.22,-1.459,-1.481,-0.072,0.074,-0.09,0.0,0.0,-0.09,-0.44,-0.54,9.78,107.88,-2.63,-3.19,255,0,0,0.0,0.0,0.0
1783505262.508338,19:07:42.508,80623,817.414,23.76,1013.22,-1.459,-1.479,-0.067,0.07,-0.081,-0.02,0.03,-0.08,-0.44,-0.54,9.78,107.88,-2.63,-3.19,255,0,0,0.0,0.0,0.0
1783505262.508583,19:07:42.508,80624,817.424,23.76,1013.22,-1.459,-1.479,-0.067,0.07,-0.081,-0.02,0.03,-0.08,-0.44,-0.54,9.78,107.88,-2.63,-3.19,255,0,0,0.0,0.0,0.0
1783505262.508594,19:07:42.508,80625,817.434,23.76,1013.22,-1.459,-1.481,-0.069,0.072,-0.099,-0.02,0.0,-0.1,-0.44,-0.54,9.78,107.88,-2.63,-3.19,255,0,0,0.0,0.0,0.0
1783505262.508604,19:07:42.508,80626,817.444,23.76,1013.22,-1.459,-1.481,-0.069,0.072,-0.099,-0.02,0.0,-0.1,-0.44,-0.54,9.78,107.88,-2.63,-3.19,255,0,0,0.0,0.0,0.0
1783505262.508613,19:07:42.508,80627,817.454,23.76,1013.22,-1.459,-1.482,-0.072,0.075,-0.141,0.0,0.02,-0.14,-0.44,-0.54,9.78,107.88,-2.63,-3.19,255,0,0,0.0,0.0,0.0
1783505262.609963,19:07:42.609,80628,817.464,23.76,1013.22,-1.459,-1.48,-0.068,0.07,-0.06,0.0,0.01,-0.06,-0.44,-0.54,9.78,107.88,-2.63,-3.19,255,0,0,0.0,0.0,0.0
1783505262.609995,19:07:42.609,80629,817.474,23.76,1013.22,-1.459,-1.481,-0.068,0.071,-0.078,-0.03,0.0,-0.08,-0.44,-0.54,9.78,107.88,-2.63,-3.19,255,0,0,0.0,0.0,0.0
1783505262.610006,19:07:42.610,80630,817.484,23.76,1013.22,-1.459,-1.481,-0.068,0.071,-0.078,-0.03,0.0,-0.08,-0.44,-0.54,9.78,107.88,-2.63,-3.19,255,0,0,0.0,0.0,0.0
1783505262.610015,19:07:42.610,80631,817.494,23.76,1013.22,-1.459,-1.482,-0.071,0.073,-0.111,0.0,0.02,-0.11,-0.44,-0.54,9.78,107.88,-2.63,-3.19,255,0,0,0.0,0.0,0.0
1783505262.610368,19:07:42.610,80632,817.504,23.76,1013.22,-1.459,-1.482,-0.071,0.073,-0.111,0.0,0.02,-0.11,-0.44,-0.54,9.78,107.88,-2.63,-3.19,255,0,0,0.0,0.0,0.0
1783505262.610379,19:07:42.610,80633,817.514,23.76,1013.22,-1.459,-1.481,-0.067,0.07,-0.07,-0.03,0.02,-0.07,-0.44,-0.54,9.78,107.88,-2.63,-3.19,255,0,0,0.0,0.0,0.0
1783505262.610387,19:07:42.610,80634,817.524,23.76,1013.22,-1.459,-1.482,-0.068,0.07,-0.069,-0.02,0.0,-0.07,-0.44,-0.54,9.78,107.88,-2.63,-3.19,255,0,0,0.0,0.0,0.0
1783505262.610395,19:07:42.610,80635,817.534,23.76,1013.22,-1.459,-1.483,-0.069,0.071,-0.09,0.0,0.01,-0.09,-0.44,-0.54,9.78,107.88,-2.63,-3.19,255,0,0,0.0,0.0,0.0
1783505262.711788,19:07:42.711,80636,817.544,23.76,1013.22,-1.459,-1.483,-0.07,0.072,-0.129,-0.02,0.01,-0.13,-0.44,-0.54,9.78,107.88,-2.63,-3.19,255,0,0,0.0,0.0,0.0
1783505262.711826,19:07:42.711,80637,817.554,23.75,1013.21,-1.372,-1.473,0.084,0.086,-0.13,0.0,0.0,-0.13,-0.44,-0.54,9.78,107.88,-2.63,-3.19,255,0,0,0.0,0.0,0.0
1783505262.711838,19:07:42.711,80638,817.564,23.75,1013.21,-1.372,-1.472,0.083,0.085,-0.12,-0.02,0.02,-0.12,-0.44,-0.54,9.78,107.88,-2.63,-3.19,255,0,0,0.0,0.0,0.0
1783505262.711848,19:07:42.711,80639,817.574,23.75,1013.21,-1.372,-1.472,0.083,0.085,-0.12,-0.02,0.02,-0.12,-0.44,-0.54,9.78,107.88,-2.63,-3.19,255,0,0,0.0,0.0,0.0
1783505262.712229,19:07:42.712,80640,817.584,23.75,1013.21,-1.372,-1.47,0.081,0.083,-0.11,0.0,0.0,-0.11,-0.44,-0.54,9.78,107.88,-2.63,-3.19,255,0,0,0.0,0.0,0.0
1783505262.712243,19:07:42.712,80641,817.594,23.75,1013.21,-1.372,-1.47,0.081,0.083,-0.11,0.0,0.0,-0.11,-0.44,-0.54,9.78,107.88,-2.63,-3.19,255,0,0,0.0,0.0,0.0
1783505262.712252,19:07:42.712,80642,817.604,23.75,1013.21,-1.372,-1.459,0.073,0.076,-0.079,-0.02,0.0,-0.08,-0.44,-0.54,9.78,107.88,-2.63,-3.19,255,0,0,0.0,0.0,0.0
1783505262.712260,19:07:42.712,80643,817.614,23.75,1013.21,-1.372,-1.458,0.072,0.075,-0.089,-0.02,0.0,-0.09,-0.44,-0.54,9.78,107.88,-2.63,-3.19,255,0,0,0.0,0.0,0.0
1783505262.712546,19:07:42.712,80644,817.625,23.75,1013.21,-1.372,-1.458,0.072,0.074,-0.059,-0.02,0.0,-0.06,-0.44,-0.54,9.78,107.88,-2.63,-3.19,255,0,0,0.0,0.0,0.0
1783505262.712557,19:07:42.712,80645,817.634,23.75,1013.21,-1.372,-1.458,0.072,0.074,-0.059,-0.02,0.0,-0.06,-0.44,-0.54,9.78,107.88,-2.63,-3.19,255,0,0,0.0,0.0,0.0
1783505262.712566,19:07:42.712,80646,817.644,23.75,1013.21,-1.372,-1.456,0.07,0.073,-0.089,-0.02,0.0,-0.09,-0.44,-0.54,9.78,107.88,-2.63,-3.19,255,0,0,0.0,0.0,0.0
1783505262.712574,19:07:42.712,80647,817.654,23.75,1013.21,-1.372,-1.447,0.064,0.066,-0.099,-0.02,0.0,-0.1,-0.44,-0.54,9.78,107.88,-2.63,-3.19,255,0,0,0.0,0.0,0.0
1783505262.813892,19:07:42.813,80648,817.664,23.75,1013.21,-1.372,-1.447,0.063,0.066,-0.088,-0.03,0.0,-0.09,-0.44,-0.54,9.78,107.88,-2.63,-3.19,255,0,0,0.0,0.0,0.0
1783505262.813924,19:07:42.813,80649,817.674,23.75,1013.21,-1.372,-1.446,0.062,0.065,-0.081,-0.02,0.03,-0.08,-0.44,-0.54,9.78,107.88,-2.63,-3.19,255,0,0,0.0,0.0,0.0
1783505262.813935,19:07:42.813,80650,817.684,23.75,1013.21,-1.372,-1.445,0.061,0.064,-0.079,-0.02,0.01,-0.08,-0.44,-0.54,9.78,107.88,-2.63,-3.19,255,0,0,0.0,0.0,0.0
1783505262.813944,19:07:42.813,80651,817.694,23.75,1013.21,-1.372,-1.445,0.061,0.064,-0.079,-0.02,0.01,-0.08,-0.44,-0.54,9.78,107.88,-2.63,-3.19,255,0,0,0.0,0.0,0.0
1783505262.814295,19:07:42.814,80652,817.704,23.75,1013.21,-1.372,-1.437,0.055,0.059,-0.109,-0.02,0.0,-0.11,-0.44,-0.54,9.78,107.88,-2.63,-3.19,255,0,0,0.0,0.0,0.0
1783505262.814306,19:07:42.814,80653,817.714,23.75,1013.21,-1.372,-1.436,0.054,0.058,-0.1,0.0,0.0,-0.1,-0.44,-0.54,9.78,107.88,-2.63,-3.19,255,0,0,0.0,0.0,0.0
1783505262.814317,19:07:42.814,80654,817.724,23.75,1013.21,-1.372,-1.436,0.054,0.058,-0.1,0.0,0.0,-0.1,-0.44,-0.54,9.78,107.88,-2.63,-3.19,255,0,0,0.0,0.0,0.0
1783505262.814326,19:07:42.814,80655,817.734,23.75,1013.21,-1.372,-1.435,0.053,0.056,-0.07,0.0,0.0,-0.07,-0.44,-0.54,9.78,107.88,-2.63,-3.19,255,0,0,0.0,0.0,0.0
1783505262.814568,19:07:42.814,80656,817.744,23.75,1013.21,-1.372,-1.435,0.052,0.055,-0.1,0.0,0.0,-0.1,-0.44,-0.54,9.78,107.88,-2.63,-3.19,255,0,0,0.0,0.0,0.0
1783505262.814578,19:07:42.814,80657,817.754,23.75,1013.21,-1.372,-1.428,0.047,0.051,-0.1,0.0,0.0,-0.1,-0.44,-0.54,9.78,107.88,-2.63,-3.19,255,0,0,0.0,0.0,0.0
1783505262.814585,19:07:42.814,80658,817.764,23.75,1013.21,-1.372,-1.427,0.046,0.05,-0.07,0.0,0.01,-0.07,-0.44,-0.54,9.78,107.88,-2.63,-3.19,255,0,0,0.0,0.0,0.0
1783505262.814593,19:07:42.814,80659,817.774,23.75,1013.21,-1.372,-1.427,0.046,0.05,-0.04,-0.02,0.02,-0.04,-0.44,-0.54,9.78,107.88,-2.63,-3.19,255,0,0,0.0,0.0,0.0
1783505262.914965,19:07:42.914,80660,817.784,23.75,1013.21,-1.372,-1.427,0.045,0.049,-0.059,-0.03,0.01,-0.06,-0.44,-0.54,9.78,107.88,-2.63,-3.19,255,0,0,0.0,0.0,0.0
1783505262.914998,19:07:42.914,80661,817.794,23.75,1013.21,-1.372,-1.421,0.041,0.045,-0.148,-0.03,0.0,-0.15,-0.44,-0.54,9.78,107.88,-2.63,-3.19,255,0,0,0.0,0.0,0.0
1783505262.915007,19:07:42.915,80662,817.804,23.75,1013.21,-1.372,-1.42,0.04,0.044,-0.11,0.0,0.0,-0.11,-0.44,-0.54,9.78,107.88,-2.63,-3.19,255,0,0,0.0,0.0,0.0
1783505262.915016,19:07:42.915,80663,817.814,23.75,1013.21,-1.372,-1.42,0.039,0.043,-0.081,0.0,0.02,-0.08,-0.44,-0.54,9.78,107.88,-2.63,-3.19,255,0,0,0.0,0.0,0.0
1783505262.915386,19:07:42.915,80664,817.824,23.75,1013.21,-1.372,-1.419,0.038,0.042,-0.081,0.0,0.03,-0.08,-0.44,-0.54,9.78,107.88,-2.63,-3.19,255,0,0,0.0,0.0,0.0
1783505262.915399,19:07:42.915,80665,817.834,23.75,1013.21,-1.372,-1.414,0.035,0.039,-0.08,0.0,0.0,-0.08,-0.44,-0.54,9.78,107.88,-2.63,-3.19,255,0,0,0.0,0.0,0.0
1783505262.915408,19:07:42.915,80666,817.844,23.75,1013.21,-1.372,-1.414,0.034,0.039,-0.079,-0.02,0.0,-0.08,-0.44,-0.54,9.78,107.88,-2.63,-3.19,255,0,0,0.0,0.0,0.0
1783505262.915416,19:07:42.915,80667,817.854,23.75,1013.21,-1.372,-1.414,0.033,0.038,-0.129,-0.03,0.02,-0.13,-0.44,-0.54,9.78,107.88,-2.63,-3.19,255,0,0,0.0,0.0,0.0
1783505263.016996,19:07:43.016,80668,817.864,23.75,1013.21,-1.372,-1.413,0.032,0.037,-0.081,0.0,0.02,-0.08,-0.44,-0.54,9.78,107.88,-2.63,-3.19,255,0,0,0.0,0.0,0.0
1783505263.017071,19:07:43.017,80669,817.874,23.75,1013.21,-1.372,-1.413,0.031,0.036,-0.121,0.0,0.02,-0.12,-0.44,-0.54,9.78,107.88,-2.63,-3.19,255,0,0,0.0,0.0,0.0
1783505263.017097,19:07:43.017,80670,817.884,23.75,1013.21,-1.372,-1.409,0.028,0.033,-0.1,0.0,0.0,-0.1,-0.44,-0.54,9.78,107.88,-2.63,-3.19,255,0,0,0.0,0.0,0.0
1783505263.017117,19:07:43.017,80671,817.906,23.75,1013.21,-1.372,-1.408,0.025,0.031,-0.07,0.0,0.01,-0.07,-0.44,-0.54,9.78,107.88,-2.63,-3.19,255,0,0,0.0,0.0,0.0
1783505263.018066,19:07:43.018,80672,817.908,23.75,1013.21,-1.372,-1.408,0.025,0.031,-0.07,0.0,0.0,-0.07,-0.44,-0.54,9.78,107.88,-2.63,-3.19,255,0,0,0.0,0.0,0.0
1783505263.018101,19:07:43.018,80673,817.918,23.75,1013.21,-1.372,-1.408,0.025,0.031,-0.07,0.0,0.0,-0.07,-0.44,-0.54,9.78,107.88,-2.63,-3.19,255,0,0,0.0,0.0,0.0
1783505263.018112,19:07:43.018,80674,817.929,23.75,1013.21,-1.372,-1.404,0.022,0.029,-0.09,0.0,0.0,-0.09,-0.44,-0.54,9.78,107.88,-2.63,-3.19,255,0,0,0.0,0.0,0.0
1783505263.018121,19:07:43.018,80675,817.938,23.75,1013.21,-1.372,-1.404,0.021,0.028,-0.081,0.0,0.02,-0.08,-0.44,-0.54,9.78,107.88,-2.63,-3.19,255,0,0,0.0,0.0,0.0
1783505263.119610,19:07:43.119,80676,817.948,23.75,1013.21,-1.372,-1.403,0.02,0.027,-0.09,-0.03,0.02,-0.09,-0.44,-0.54,9.78,107.88,-2.63,-3.19,255,0,0,0.0,0.0,0.0
1783505263.119644,19:07:43.119,80677,817.958,23.75,1013.21,-1.372,-1.403,0.02,0.027,-0.079,-0.02,0.0,-0.08,-0.44,-0.54,9.78,107.88,-2.63,-3.19,255,0,0,0.0,0.0,0.0
1783505263.119655,19:07:43.119,80678,817.968,23.75,1013.21,-1.372,-1.403,0.019,0.026,-0.07,0.0,0.01,-0.07,-0.44,-0.54,9.78,107.88,-2.63,-3.19,255,0,0,0.0,0.0,0.0
1783505263.119664,19:07:43.119,80679,817.978,23.75,1013.21,-1.372,-1.4,0.017,0.025,-0.081,0.0,0.02,-0.08,-0.44,-0.54,9.78,107.88,-2.63,-3.19,255,0,0,0.0,0.0,0.0
1783505263.120066,19:07:43.120,80680,817.988,23.75,1013.21,-1.372,-1.4,0.016,0.024,-0.121,0.0,0.02,-0.12,-0.44,-0.54,9.78,107.88,-2.63,-3.19,255,0,0,0.0,0.0,0.0
1783505263.120078,19:07:43.120,80681,817.998,23.75,1013.21,-1.372,-1.399,0.015,0.024,-0.068,-0.03,0.0,-0.07,-0.44,-0.54,9.78,107.88,-2.63,-3.19,255,0,0,0.0,0.0,0.0
1783505263.120086,19:07:43.120,80682,818.008,23.75,1013.21,-1.372,-1.399,0.014,0.023,-0.1,0.0,0.0,-0.1,-0.44,-0.54,9.78,107.88,-2.63,-3.19,255,0,0,0.0,0.0,0.0
1783505263.120094,19:07:43.120,80683,818.018,23.75,1013.21,-1.372,-1.399,0.013,0.022,-0.1,0.0,0.0,-0.1,-0.44,-0.54,9.78,107.88,-2.63,-3.19,255,0,0,0.0,0.0,0.0
1783505263.120347,19:07:43.120,80684,818.028,23.75,1013.21,-1.372,-1.396,0.011,0.021,-0.1,0.0,0.0,-0.1,-0.44,-0.54,9.78,107.88,-2.63,-3.19,255,0,0,0.0,0.0,0.0
1783505263.120357,19:07:43.120,80685,818.038,23.75,1013.21,-1.372,-1.396,0.01,0.02,-0.09,0.0,0.01,-0.09,-0.44,-0.54,9.78,107.88,-2.63,-3.19,255,0,0,0.0,0.0,0.0
1783505263.120415,19:07:43.120,80686,818.048,23.75,1013.21,-1.372,-1.396,0.009,0.02,-0.111,0.0,0.02,-0.11,-0.44,-0.54,9.78,107.88,-2.63,-3.19,255,0,0,0.0,0.0,0.0
1783505263.120427,19:07:43.120,80687,818.058,23.75,1013.21,-1.372,-1.396,0.008,0.019,-0.119,-0.02,0.0,-0.12,-0.44,-0.54,9.78,107.88,-2.63,-3.19,255,0,0,0.0,0.0,0.0
1783505263.221803,19:07:43.221,80688,818.068,23.75,1013.21,-1.372,-1.396,0.007,0.019,-0.089,-0.02,0.0,-0.09,-0.44,-0.54,9.78,107.88,-2.63,-3.19,255,0,0,0.0,0.0,0.0
1783505263.221839,19:07:43.221,80689,818.078,23.75,1013.21,-1.372,-1.393,0.006,0.019,-0.089,-0.02,0.0,-0.09,-0.44,-0.54,9.78,107.88,-2.63,-3.19,255,0,0,0.0,0.0,0.0
1783505263.221851,19:07:43.221,80690,818.088,23.75,1013.21,-1.372,-1.393,0.005,0.018,-0.079,-0.02,0.0,-0.08,-0.44,-0.54,9.78,107.88,-2.63,-3.19,255,0,0,0.0,0.0,0.0
1783505263.221860,19:07:43.221,80691,818.098,23.75,1013.21,-1.372,-1.393,0.004,0.018,-0.099,-0.02,0.0,-0.1,-0.44,-0.54,9.78,107.88,-2.63,-3.19,255,0,0,0.0,0.0,0.0
1783505263.222210,19:07:43.222,80692,818.108,23.75,1013.21,-1.372,-1.393,0.003,0.018,-0.12,-0.02,0.02,-0.12,-0.44,-0.54,9.78,107.88,-2.63,-3.19,255,0,0,0.0,0.0,0.0
1783505263.222221,19:07:43.222,80693,818.118,23.75,1013.21,-1.372,-1.391,0.001,0.018,-0.111,0.0,0.02,-0.11,-0.44,-0.54,9.78,107.88,-2.63,-3.19,255,0,0,0.0,0.0,0.0
1783505263.222230,19:07:43.222,80694,818.128,23.75,1013.21,-1.372,-1.391,0.001,0.018,-0.08,-0.03,0.02,-0.08,-0.44,-0.54,9.78,107.88,-2.63,-3.19,255,0,0,0.0,0.0,0.0
1783505263.222239,19:07:43.222,80695,818.138,23.75,1013.21,-1.372,-1.391,0.0,0.018,-0.098,-0.05,0.0,-0.1,-0.44,-0.54,9.78,107.88,-2.63,-3.19,255,0,0,0.0,0.0,0.0
1783505263.222487,19:07:43.222,80696,818.148,23.75,1013.21,-1.372,-1.391,-0.001,0.018,-0.099,-0.02,0.01,-0.1,-0.44,-0.54,9.78,107.88,-2.63,-3.19,255,0,0,0.0,0.0,0.0
1783505263.222497,19:07:43.222,80697,818.158,23.75,1013.21,-1.372,-1.391,-0.002,0.018,-0.109,-0.02,0.0,-0.11,-0.44,-0.54,9.78,107.88,-2.63,-3.19,255,0,0,0.0,0.0,0.0
1783505263.222507,19:07:43.222,80698,818.169,23.75,1013.21,-1.372,-1.389,-0.003,0.019,-0.099,-0.02,0.0,-0.1,-0.44,-0.54,9.78,107.88,-2.63,-3.19,255,0,0,0.0,0.0,0.0
1783505263.222515,19:07:43.222,80699,818.178,23.75,1013.21,-1.372,-1.389,-0.004,0.019,-0.07,0.0,0.01,-0.07,-0.44,-0.54,9.78,107.88,-2.63,-3.19,255,0,0,0.0,0.0,0.0
1783505263.323859,19:07:43.323,80700,818.188,23.75,1013.21,-1.372,-1.389,-0.005,0.019,-0.079,-0.02,0.0,-0.08,-0.44,-0.54,9.78,107.88,-2.63,-3.19,255,0,0,0.0,0.0,0.0
1783505263.323898,19:07:43.323,80701,818.198,23.75,1013.21,-1.372,-1.389,-0.006,0.019,-0.1,-0.02,0.02,-0.1,-0.44,-0.54,9.78,107.88,-2.63,-3.19,255,0,0,0.0,0.0,0.0
1783505263.323910,19:07:43.323,80702,818.208,23.75,1013.21,-1.372,-1.389,-0.007,0.02,-0.13,-0.02,0.02,-0.13,-0.44,-0.54,9.78,107.88,-2.63,-3.19,255,0,0,0.0,0.0,0.0
1783505263.323920,19:07:43.323,80703,818.218,23.75,1013.21,-1.372,-1.388,-0.007,0.02,-0.089,-0.02,0.0,-0.09,-0.44,-0.54,9.78,107.88,-2.63,-3.19,255,0,0,0.0,0.0,0.0
1783505263.324296,19:07:43.324,80704,818.228,23.75,1013.21,-1.372,-1.388,-0.008,0.02,-0.051,-0.02,0.03,-0.05,-0.44,-0.54,9.78,107.88,-2.63,-3.19,255,0,0,0.0,0.0,0.0
1783505263.324309,19:07:43.324,80705,818.238,23.75,1013.21,-1.372,-1.388,-0.009,0.02,-0.08,0.0,0.0,-0.08,-0.44,-0.54,9.78,107.88,-2.63,-3.19,255,0,0,0.0,0.0,0.0
1783505263.324320,19:07:43.324,80706,818.248,23.75,1013.21,-1.372,-1.388,-0.009,0.021,-0.08,0.0,0.0,-0.08,-0.44,-0.54,9.78,107.88,-2.63,-3.19,255,0,0,0.0,0.0,0.0
1783505263.324328,19:07:43.324,80707,818.258,23.75,1013.21,-1.372,-1.386,-0.01,0.021,-0.099,-0.02,0.0,-0.1,-0.44,-0.54,9.78,107.88,-2.63,-3.19,255,0,0,0.0,0.0,0.0
1783505263.425077,19:07:43.425,80708,818.268,23.75,1013.21,-1.372,-1.386,-0.011,0.021,-0.09,-0.03,0.02,-0.09,-0.44,-0.54,9.78,107.88,-2.63,-3.19,255,0,0,0.0,0.0,0.0
1783505263.425114,19:07:43.425,80709,818.278,23.75,1013.21,-1.372,-1.387,-0.011,0.022,-0.069,-0.02,0.0,-0.07,-0.44,-0.54,9.78,107.88,-2.63,-3.19,255,0,0,0.0,0.0,0.0
1783505263.425126,19:07:43.425,80710,818.288,23.75,1013.21,-1.372,-1.387,-0.012,0.022,-0.069,-0.02,0.0,-0.07,-0.44,-0.54,9.78,107.88,-2.63,-3.19,255,0,0,0.0,0.0,0.0
1783505263.425135,19:07:43.425,80711,818.298,23.75,1013.21,-1.372,-1.387,-0.013,0.023,-0.118,-0.03,0.0,-0.12,-0.44,-0.54,9.78,107.88,-2.63,-3.19,255,0,0,0.0,0.0,0.0
1783505263.425534,19:07:43.425,80712,818.308,23.75,1013.21,-1.372,-1.385,-0.013,0.023,-0.098,-0.03,0.0,-0.1,-0.44,-0.54,9.78,107.88,-2.63,-3.19,255,0,0,0.0,0.0,0.0
1783505263.425546,19:07:43.425,80713,818.318,23.75,1013.21,-1.372,-1.386,-0.014,0.023,-0.099,-0.02,0.0,-0.1,-0.44,-0.54,9.78,107.88,-2.63,-3.19,255,0,0,0.0,0.0,0.0
1783505263.425555,19:07:43.425,80714,818.328,23.75,1013.21,-1.372,-1.386,-0.015,0.024,-0.099,-0.02,0.0,-0.1,-0.44,-0.54,9.78,107.88,-2.63,-3.19,255,0,0,0.0,0.0,0.0
1783505263.425563,19:07:43.425,80715,818.338,23.75,1013.21,-1.372,-1.386,-0.016,0.024,-0.07,0.01,0.0,-0.07,-0.44,-0.54,9.78,107.88,-2.63,-3.19,255,0,0,0.0,0.0,0.0
1783505263.425814,19:07:43.425,80716,818.348,23.75,1013.21,-1.372,-1.386,-0.017,0.025,-0.129,-0.03,0.02,-0.13,-0.44,-0.54,9.78,107.88,-2.63,-3.19,255,0,0,0.0,0.0,0.0
1783505263.425825,19:07:43.425,80717,818.358,23.75,1013.21,-1.372,-1.385,-0.017,0.025,-0.101,0.0,0.02,-0.1,-0.44,-0.54,9.78,107.88,-2.63,-3.19,255,0,0,0.0,0.0,0.0
1783505263.425833,19:07:43.425,80718,818.368,23.75,1013.21,-1.372,-1.385,-0.018,0.026,-0.09,0.0,0.0,-0.09,-0.44,-0.54,9.78,107.88,-2.63,-3.19,255,0,0,0.0,0.0,0.0
1783505263.425841,19:07:43.425,80719,818.378,23.75,1013.21,-1.372,-1.385,-0.019,0.026,-0.091,0.0,0.02,-0.09,-0.44,-0.54,9.78,107.88,-2.63,-3.19,255,0,0,0.0,0.0,0.0
1783505263.527181,19:07:43.527,80720,818.388,23.75,1013.21,-1.372,-1.385,-0.02,0.027,-0.12,0.0,0.01,-0.12,-0.44,-0.54,9.78,107.88,-2.63,-3.19,255,0,0,0.0,0.0,0.0
1783505263.527334,19:07:43.527,80721,818.398,23.75,1013.21,-1.372,-1.384,-0.02,0.027,-0.12,0.0,0.01,-0.12,-0.44,-0.54,9.78,107.88,-2.63,-3.19,255,0,0,0.0,0.0,0.0
1783505263.527347,19:07:43.527,80722,818.409,23.75,1013.21,-1.372,-1.384,-0.021,0.027,-0.12,0.0,0.0,-0.12,-0.44,-0.54,9.78,107.88,-2.63,-3.19,255,0,0,0.0,0.0,0.0
1783505263.527358,19:07:43.527,80723,818.418,23.75,1013.21,-1.372,-1.385,-0.021,0.028,-0.071,0.0,0.02,-0.07,-0.44,-0.54,9.78,107.88,-2.63,-3.19,255,0,0,0.0,0.0,0.0
1783505263.527651,19:07:43.527,80724,818.428,23.75,1013.21,-1.372,-1.385,-0.022,0.029,-0.071,0.0,0.02,-0.07,-0.44,-0.54,9.78,107.88,-2.63,-3.19,255,0,0,0.0,0.0,0.0
1783505263.527661,19:07:43.527,80725,818.438,23.75,1013.21,-1.372,-1.385,-0.023,0.029,-0.08,0.0,0.01,-0.08,-0.44,-0.54,9.78,107.88,-2.63,-3.19,255,0,0,0.0,0.0,0.0
1783505263.527671,19:07:43.527,80726,818.448,23.75,1013.21,-1.372,-1.384,-0.022,0.028,-0.1,0.0,0.01,-0.1,-0.44,-0.54,9.78,107.88,-2.63,-3.19,255,0,0,0.0,0.0,0.0
1783505263.527680,19:07:43.527,80727,818.458,23.75,1013.21,-1.372,-1.384,-0.023,0.029,-0.08,0.0,0.01,-0.08,-0.44,-0.54,9.78,107.88,-2.63,-3.19,255,0,0,0.0,0.0,0.0
1783505263.629008,19:07:43.629,80728,818.468,23.75,1013.21,-1.372,-1.384,-0.024,0.03,-0.081,-0.02,0.04,-0.08,-0.44,-0.54,9.78,107.88,-2.63,-3.19,255,0,0,0.0,0.0,0.0
1783505263.629035,19:07:43.629,80729,818.478,23.75,1013.21,-1.372,-1.385,-0.025,0.031,-0.081,-0.02,0.04,-0.08,-0.44,-0.54,9.78,107.88,-2.63,-3.19,255,0,0,0.0,0.0,0.0
1783505263.629047,19:07:43.629,80730,818.488,23.75,1013.21,-1.372,-1.385,-0.025,0.031,-0.068,-0.03,0.0,-0.07,-0.44,-0.54,9.78,107.88,-2.63,-3.19,255,0,0,0.0,0.0,0.0
1783505263.629055,19:07:43.629,80731,818.498,23.75,1013.21,-1.372,-1.384,-0.025,0.031,-0.109,-0.02,0.01,-0.11,-0.44,-0.54,9.78,107.88,-2.63,-3.19,255,0,0,0.0,0.0,0.0
1783505263.629412,19:07:43.629,80732,818.508,23.75,1013.21,-1.372,-1.384,-0.026,0.032,-0.12,0.0,0.0,-0.12,-0.44,-0.54,9.78,107.88,-2.63,-3.19,255,0,0,0.0,0.0,0.0
1783505263.629423,19:07:43.629,80733,818.518,23.75,1013.21,-1.372,-1.384,-0.027,0.032,-0.1,0.0,0.01,-0.1,-0.44,-0.54,9.78,107.88,-2.63,-3.19,255,0,0,0.0,0.0,0.0
1783505263.629431,19:07:43.629,80734,818.528,23.75,1013.21,-1.372,-1.384,-0.028,0.033,-0.1,0.0,0.01,-0.1,-0.44,-0.54,9.78,107.88,-2.63,-3.19,255,0,0,0.0,0.0,0.0
1783505263.629438,19:07:43.629,80735,818.538,23.75,1013.21,-1.372,-1.385,-0.029,0.034,-0.09,0.0,0.01,-0.09,-0.44,-0.54,9.78,107.88,-2.63,-3.19,255,0,0,0.0,0.0,0.0
1783505263.629725,19:07:43.629,80736,818.548,23.75,1013.21,-1.372,-1.384,-0.028,0.033,-0.09,0.0,0.01,-0.09,-0.44,-0.54,9.78,107.88,-2.63,-3.19,255,0,0,0.0,0.0,0.0
1783505263.629734,19:07:43.629,80737,818.558,23.75,1013.21,-1.372,-1.384,-0.029,0.034,-0.099,-0.02,0.0,-0.1,-0.44,-0.54,9.78,107.88,-2.63,-3.19,255,0,0,0.0,0.0,0.0
1783505263.629742,19:07:43.629,80738,818.568,23.75,1013.21,-1.372,-1.384,-0.029,0.034,-0.089,-0.02,0.0,-0.09,-0.44,-0.54,9.78,107.88,-2.63,-3.19,255,0,0,0.0,0.0,0.0
1783505263.629750,19:07:43.629,80739,818.578,23.75,1013.21,-1.372,-1.385,-0.031,0.035,-0.109,-0.02,0.01,-0.11,-0.44,-0.54,9.78,107.88,-2.63,-3.19,255,0,0,0.0,0.0,0.0
1783505263.731021,19:07:43.731,80740,818.588,23.75,1013.21,-1.372,-1.384,-0.029,0.034,-0.099,-0.02,0.01,-0.1,-0.44,-0.54,9.78,107.88,-2.63,-3.19,255,0,0,0.0,0.0,0.0
1783505263.731058,19:07:43.731,80741,818.598,23.75,1013.21,-1.372,-1.384,-0.03,0.035,-0.081,-0.02,0.04,-0.08,-0.44,-0.54,9.78,107.88,-2.63,-3.19,255,0,0,0.0,0.0,0.0
1783505263.731070,19:07:43.731,80742,818.608,23.75,1013.21,-1.372,-1.384,-0.031,0.036,-0.109,-0.02,0.0,-0.11,-0.44,-0.54,9.78,107.88,-2.63,-3.19,255,0,0,0.0,0.0,0.0
1783505263.731079,19:07:43.731,80743,818.618,23.75,1013.21,-1.372,-1.384,-0.032,0.037,-0.081,0.0,0.02,-0.08,-0.44,-0.54,9.78,107.88,-2.63,-3.19,255,0,0,0.0,0.0,0.0
1783505263.731523,19:07:43.731,80744,818.63,23.75,1013.21,-1.372,-1.385,-0.033,0.038,-0.081,0.0,0.02,-0.08,-0.44,-0.54,9.78,107.88,-2.63,-3.19,255,0,0,0.0,0.0,0.0
1783505263.731538,19:07:43.731,80745,818.638,23.75,1013.22,-1.459,-1.392,-0.153,0.154,-0.071,0.0,0.02,-0.07,-0.44,-0.54,9.78,107.88,-2.63,-3.19,255,0,0,0.0,0.0,0.0
1783505263.731547,19:07:43.731,80746,818.648,23.75,1013.22,-1.459,-1.394,-0.154,0.155,-0.11,0.0,0.01,-0.11,-0.44,-0.54,9.78,107.88,-2.63,-3.19,255,0,0,0.0,0.0,0.0
1783505263.731555,19:07:43.731,80747,818.658,23.75,1013.22,-1.459,-1.396,-0.155,0.156,-0.09,0.0,0.01,-0.09,-0.44,-0.54,9.78,107.88,-2.63,-3.19,255,0,0,0.0,0.0,0.0
1783505263.832542,19:07:43.832,80748,818.668,23.75,1013.22,-1.459,-1.397,-0.156,0.157,-0.099,-0.02,0.01,-0.1,-0.44,-0.54,9.78,107.88,-2.63,-3.19,255,0,0,0.0,0.0,0.0
1783505263.832577,19:07:43.832,80749,818.678,23.75,1013.22,-1.459,-1.399,-0.157,0.158,-0.091,-0.02,0.03,-0.09,-0.44,-0.54,9.78,107.88,-2.63,-3.19,255,0,0,0.0,0.0,0.0
1783505263.832589,19:07:43.832,80750,818.688,23.75,1013.22,-1.459,-1.406,-0.147,0.148,-0.101,0.0,0.03,-0.1,-0.44,-0.54,9.78,107.88,-2.63,-3.19,255,0,0,0.0,0.0,0.0
1783505263.832599,19:07:43.832,80751,818.698,23.75,1013.22,-1.459,-1.408,-0.148,0.149,-0.1,0.0,0.0,-0.1,-0.44,-0.54,9.78,107.88,-2.63,-3.19,255,0,0,0.0,0.0,0.0
1783505263.832964,19:07:43.832,80752,818.708,23.75,1013.22,-1.459,-1.409,-0.149,0.15,-0.1,0.0,0.0,-0.1,-0.44,-0.54,9.78,107.88,-2.63,-3.19,255,0,0,0.0,0.0,0.0
1783505263.832976,19:07:43.832,80753,818.718,23.75,1013.22,-1.459,-1.411,-0.15,0.151,-0.09,0.0,0.0,-0.09,-0.44,-0.54,9.78,107.88,-2.63,-3.19,255,0,0,0.0,0.0,0.0
1783505263.832985,19:07:43.832,80754,818.728,23.75,1013.22,-1.459,-1.417,-0.14,0.141,-0.089,-0.02,0.0,-0.09,-0.44,-0.54,9.78,107.88,-2.63,-3.19,255,0,0,0.0,0.0,0.0
1783505263.832993,19:07:43.832,80755,818.738,23.75,1013.22,-1.459,-1.418,-0.141,0.142,-0.11,0.0,0.0,-0.11,-0.44,-0.54,9.78,107.88,-2.63,-3.19,255,0,0,0.0,0.0,0.0
1783505263.833237,19:07:43.833,80756,818.748,23.75,1013.22,-1.459,-1.42,-0.142,0.143,-0.109,-0.02,0.0,-0.11,-0.44,-0.54,9.78,107.88,-2.63,-3.19,255,0,0,0.0,0.0,0.0
1783505263.833247,19:07:43.833,80757,818.758,23.75,1013.22,-1.459,-1.421,-0.144,0.145,-0.109,-0.02,0.0,-0.11,-0.44,-0.54,9.78,107.88,-2.63,-3.19,255,0,0,0.0,0.0,0.0
1783505263.833255,19:07:43.833,80758,818.769,23.75,1013.22,-1.459,-1.422,-0.144,0.145,-0.07,0.0,0.0,-0.07,-0.44,-0.54,9.78,107.88,-2.63,-3.19,255,0,0,0.0,0.0,0.0
1783505263.833263,19:07:43.833,80759,818.778,23.76,1013.22,-1.459,-1.427,-0.135,0.136,-0.07,0.0,0.0,-0.07,-0.44,-0.54,9.78,107.88,-2.63,-3.19,255,0,0,0.0,0.0,0.0
1783505263.934094,19:07:43.934,80760,818.788,23.76,1013.22,-1.459,-1.429,-0.136,0.137,-0.12,-0.02,0.02,-0.12,-0.44,-0.54,9.78,107.88,-2.63,-3.19,255,0,0,0.0,0.0,0.0
1783505263.934120,19:07:43.934,80761,818.798,23.76,1013.22,-1.459,-1.43,-0.137,0.138,-0.12,-0.02,0.02,-0.12,-0.44,-0.54,9.78,107.88,-2.63,-3.19,255,0,0,0.0,0.0,0.0
1783505263.934129,19:07:43.934,80762,818.808,23.76,1013.22,-1.459,-1.431,-0.138,0.139,-0.08,-0.02,0.02,-0.08,-0.44,-0.54,9.78,107.88,-2.63,-3.19,255,0,0,0.0,0.0,0.0
1783505263.934137,19:07:43.934,80763,818.818,23.76,1013.22,-1.459,-1.433,-0.139,0.14,-0.089,-0.02,0.01,-0.09,-0.44,-0.54,9.78,107.88,-2.63,-3.19,255,0,0,0.0,0.0,0.0
1783505263.934473,19:07:43.934,80764,818.828,23.76,1013.22,-1.459,-1.437,-0.13,0.131,-0.089,-0.02,0.01,-0.09,-0.44,-0.54,9.78,107.88,-2.63,-3.19,255,0,0,0.0,0.0,0.0
1783505263.934484,19:07:43.934,80765,818.838,23.76,1013.22,-1.459,-1.438,-0.131,0.132,-0.09,0.0,0.01,-0.09,-0.44,-0.54,9.78,107.88,-2.63,-3.19,255,0,0,0.0,0.0,0.0
1783505263.934492,19:07:43.934,80766,818.848,23.76,1013.22,-1.459,-1.439,-0.132,0.133,-0.092,0.0,0.04,-0.09,-0.44,-0.54,9.78,107.88,-2.63,-3.19,255,0,0,0.0,0.0,0.0
1783505263.934500,19:07:43.934,80767,818.858,23.76,1013.22,-1.459,-1.441,-0.133,0.134,-0.08,0.0,0.0,-0.08,-0.44,-0.54,9.78,107.88,-2.63,-3.19,255,0,0,0.0,0.0,0.0
1783505264.036107,19:07:44.036,80768,818.868,23.76,1013.22,-1.459,-1.444,-0.124,0.125,-0.08,0.0,0.0,-0.08,-0.44,-0.54,9.78,107.88,-2.63,-3.19,255,0,0,0.0,0.0,0.0
1783505264.036177,19:07:44.036,80769,818.878,23.76,1013.22,-1.459,-1.445,-0.125,0.126,-0.11,0.0,0.01,-0.11,-0.44,-0.54,9.78,107.88,-2.63,-3.19,255,0,0,0.0,0.0,0.0
1783505264.036203,19:07:44.036,80770,818.888,23.76,1013.22,-1.459,-1.446,-0.126,0.128,-0.12,0.01,0.0,-0.12,-0.44,-0.54,9.78,107.88,-2.63,-3.19,255,0,0,0.0,0.0,0.0
1783505264.036225,19:07:44.036,80771,818.909,23.76,1013.22,-1.459,-1.449,-0.129,0.13,-0.08,0.0,0.0,-0.08,-0.44,-0.54,9.78,107.88,-2.63,-3.19,255,0,0,0.0,0.0,0.0
1783505264.037187,19:07:44.037,80772,818.911,23.76,1013.22,-1.459,-1.449,-0.129,0.13,-0.08,0.0,0.0,-0.08,-0.44,-0.54,9.78,107.88,-2.63,-3.19,255,0,0,0.0,0.0,0.0
1783505264.037215,19:07:44.037,80773,818.921,23.76,1013.22,-1.459,-1.451,-0.12,0.121,-0.081,0.0,0.03,-0.08,-0.44,-0.54,9.78,107.88,-2.63,-3.19,255,0,0,0.0,0.0,0.0
1783505264.037236,19:07:44.037,80774,818.931,23.76,1013.22,-1.459,-1.451,-0.12,0.121,-0.081,0.0,0.03,-0.08,-0.44,-0.54,9.78,107.88,-2.63,-3.19,255,0,0,0.0,0.0,0.0
1783505264.037256,19:07:44.037,80775,818.941,23.76,1013.22,-1.459,-1.454,-0.122,0.123,-0.07,0.0,0.0,-0.07,-0.44,-0.54,9.78,107.88,-2.63,-3.19,255,0,0,0.0,0.0,0.0
1783505264.037934,19:07:44.037,80776,818.951,23.76,1013.22,-1.459,-1.455,-0.123,0.124,-0.1,0.0,0.0,-0.1,-0.44,-0.54,9.78,107.88,-2.63,-3.19,255,0,0,0.0,0.0,0.0
1783505264.037959,19:07:44.037,80777,818.961,23.76,1013.22,-1.459,-1.456,-0.124,0.125,-0.1,0.0,0.0,-0.1,-0.44,-0.54,9.78,107.88,-2.63,-3.19,255,0,0,0.0,0.0,0.0
1783505264.037980,19:07:44.037,80778,818.971,23.76,1013.22,-1.459,-1.457,-0.116,0.117,-0.12,0.0,0.01,-0.12,-0.44,-0.54,9.78,107.88,-2.63,-3.19,255,0,0,0.0,0.0,0.0
1783505264.038000,19:07:44.038,80779,818.981,23.76,1013.22,-1.459,-1.457,-0.116,0.117,-0.12,0.0,0.01,-0.12,-0.44,-0.54,9.78,107.88,-2.63,-3.19,255,0,0,0.0,0.0,0.0
1783505264.140180,19:07:44.140,80780,818.991,23.76,1013.22,-1.459,-1.46,-0.118,0.119,-0.09,0.0,0.0,-0.09,-0.44,-0.54,9.78,107.88,-2.63,-3.19,255,0,0,0.0,0.0,0.0
1783505264.140275,19:07:44.140,80781,819.001,23.76,1013.22,-1.459,-1.461,-0.119,0.12,-0.1,0.0,0.01,-0.1,-0.44,-0.54,9.78,107.88,-2.63,-3.19,255,0,0,0.0,0.0,0.0
1783505264.140322,19:07:44.140,80782,819.011,23.76,1013.22,-1.459,-1.462,-0.12,0.121,-0.11,0.0,0.0,-0.11,-0.44,-0.54,9.78,107.88,-2.63,-3.19,255,0,0,0.0,0.0,0.0
1783505264.140360,19:07:44.140,80783,819.021,23.76,1013.23,-1.543,-1.471,-0.231,0.231,-0.111,0.0,0.03,-0.11,-0.44,-0.54,9.78,107.88,-2.63,-3.19,255,0,0,0.0,0.0,0.0
1783505264.141620,19:07:44.141,80784,819.031,23.76,1013.23,-1.543,-1.474,-0.232,0.232,-0.111,0.0,0.03,-0.11,-0.44,-0.54,9.78,107.88,-2.63,-3.19,255,0,0,0.0,0.0,0.0
1783505264.141662,19:07:44.141,80785,819.041,23.76,1013.23,-1.543,-1.476,-0.233,0.233,-0.12,-0.02,0.02,-0.12,-0.44,-0.54,9.78,107.88,-2.63,-3.19,255,0,0,0.0,0.0,0.0
1783505264.141766,19:07:44.141,80786,819.051,23.76,1013.23,-1.543,-1.476,-0.233,0.233,-0.12,-0.02,0.02,-0.12,-0.44,-0.54,9.78,107.88,-2.63,-3.19,255,0,0,0.0,0.0,0.0
1783505264.141795,19:07:44.141,80787,819.061,23.76,1013.22,-1.459,-1.478,-0.071,0.072,-0.099,-0.02,0.0,-0.1,-0.44,-0.54,9.78,107.88,-2.63,-3.19,255,0,0,0.0,0.0,0.0
1783505264.243097,19:07:44.243,80788,819.071,23.76,1013.22,-1.459,-1.479,-0.072,0.073,-0.08,0.0,0.0,-0.08,-0.44,-0.54,9.78,107.88,-2.63,-3.19,255,0,0,0.0,0.0,0.0
1783505264.243134,19:07:44.243,80789,819.081,23.76,1013.22,-1.459,-1.48,-0.072,0.074,-0.08,0.0,0.0,-0.08,-0.44,-0.54,9.78,107.88,-2.63,-3.19,255,0,0,0.0,0.0,0.0
1783505264.243145,19:07:44.243,80790,819.091,23.76,1013.22,-1.459,-1.481,-0.073,0.075,-0.069,-0.02,0.0,-0.07,-0.44,-0.54,9.78,107.88,-2.63,-3.19,255,0,0,0.0,0.0,0.0
1783505264.243155,19:07:44.243,80791,819.101,23.76,1013.22,-1.459,-1.481,-0.074,0.075,-0.06,0.0,0.0,-0.06,-0.44,-0.54,9.78,107.88,-2.63,-3.19,255,0,0,0.0,0.0,0.0
1783505264.243542,19:07:44.243,80792,819.111,23.76,1013.23,-1.543,-1.488,-0.187,0.188,-0.09,0.0,0.0,-0.09,-0.44,-0.54,9.78,107.88,-2.63,-3.19,255,0,0,0.0,0.0,0.0
1783505264.243555,19:07:44.243,80793,819.121,23.76,1013.23,-1.543,-1.49,-0.188,0.189,-0.089,-0.02,0.0,-0.09,-0.44,-0.54,9.78,107.88,-2.63,-3.19,255,0,0,0.0,0.0,0.0
1783505264.243564,19:07:44.243,80794,819.131,23.76,1013.23,-1.543,-1.492,-0.189,0.19,-0.11,0.0,0.0,-0.11,-0.44,-0.54,9.78,107.88,-2.63,-3.19,255,0,0,0.0,0.0,0.0
1783505264.243572,19:07:44.243,80795,819.141,23.76,1013.23,-1.543,-1.492,-0.189,0.19,-0.11,0.0,0.0,-0.11,-0.44,-0.54,9.78,107.88,-2.63,-3.19,255,0,0,0.0,0.0,0.0
1783505264.243823,19:07:44.243,80796,819.151,23.76,1013.23,-1.543,-1.496,-0.191,0.192,-0.1,0.0,0.0,-0.1,-0.44,-0.54,9.78,107.88,-2.63,-3.19,255,0,0,0.0,0.0,0.0
1783505264.243832,19:07:44.243,80797,819.161,23.76,1013.23,-1.543,-1.502,-0.179,0.179,-0.088,-0.03,0.0,-0.09,-0.44,-0.54,9.78,107.88,-2.63,-3.19,255,0,0,0.0,0.0,0.0
1783505264.243841,19:07:44.243,80798,819.171,23.76,1013.23,-1.543,-1.504,-0.18,0.18,-0.08,0.0,0.01,-0.08,-0.44,-0.54,9.78,107.88,-2.63,-3.19,255,0,0,0.0,0.0,0.0
1783505264.243848,19:07:44.243,80799,819.181,23.76,1013.23,-1.543,-1.506,-0.18,0.181,-0.061,-0.02,0.03,-0.06,-0.44,-0.54,9.78,107.88,-2.63,-3.19,255,0,0,0.0,0.0,0.0
1783505264.345032,19:07:44.345,80800,819.191,23.76,1013.23,-1.543,-1.508,-0.181,0.182,-0.079,-0.02,0.0,-0.08,-0.44,-0.54,9.78,107.88,-2.63,-3.19,255,0,0,0.0,0.0,0.0
1783505264.345075,19:07:44.345,80801,819.201,23.76,1013.23,-1.543,-1.511,-0.168,0.169,-0.079,-0.02,0.0,-0.08,-0.44,-0.54,9.78,107.88,-2.63,-3.19,255,0,0,0.0,0.0,0.0
1783505264.345088,19:07:44.345,80802,819.211,23.76,1013.23,-1.543,-1.515,-0.17,0.171,-0.099,-0.02,0.0,-0.1,-0.44,-0.54,9.78,107.88,-2.63,-3.19,255,0,0,0.0,0.0,0.0
1783505264.345097,19:07:44.345,80803,819.221,23.76,1013.23,-1.543,-1.516,-0.171,0.172,-0.08,0.0,0.0,-0.08,-0.44,-0.54,9.78,107.88,-2.63,-3.19,255,0,0,0.0,0.0,0.0
1783505264.345503,19:07:44.345,80804,819.231,23.76,1013.23,-1.543,-1.516,-0.171,0.172,-0.08,0.0,0.0,-0.08,-0.44,-0.54,9.78,107.88,-2.63,-3.19,255,0,0,0.0,0.0,0.0
1783505264.345515,19:07:44.345,80805,819.241,23.76,1013.23,-1.543,-1.52,-0.173,0.173,-0.089,-0.03,0.01,-0.09,-0.44,-0.54,9.78,107.88,-2.63,-3.19,255,0,0,0.0,0.0,0.0
1783505264.345525,19:07:44.345,80806,819.251,23.76,1013.22,-1.459,-1.514,-0.045,0.047,-0.101,0.0,0.03,-0.1,-0.44,-0.54,9.78,107.88,-2.63,-3.19,255,0,0,0.0,0.0,0.0
1783505264.345533,19:07:44.345,80807,819.261,23.76,1013.22,-1.459,-1.514,-0.046,0.048,-0.1,0.0,0.0,-0.1,-0.44,-0.54,9.78,107.88,-2.63,-3.19,255,0,0,0.0,0.0,0.0
1783505264.345790,19:07:44.345,80808,819.271,23.76,1013.22,-1.459,-1.515,-0.046,0.049,-0.079,-0.02,0.0,-0.08,-0.44,-0.54,9.78,107.88,-2.63,-3.19,255,0,0,0.0,0.0,0.0
1783505264.345800,19:07:44.345,80809,819.281,23.76,1013.22,-1.459,-1.515,-0.047,0.049,-0.079,-0.02,0.0,-0.08,-0.44,-0.54,9.78,107.88,-2.63,-3.19,255,0,0,0.0,0.0,0.0
1783505264.345808,19:07:44.345,80810,819.291,23.76,1013.22,-1.459,-1.515,-0.047,0.049,-0.079,-0.02,0.0,-0.08,-0.44,-0.54,9.78,107.88,-2.63,-3.19,255,0,0,0.0,0.0,0.0
1783505264.345815,19:07:44.345,80811,819.301,23.76,1013.22,-1.459,-1.511,-0.045,0.048,-0.13,0.0,0.01,-0.13,-0.44,-0.54,9.78,107.88,-2.63,-3.19,255,0,0,0.0,0.0,0.0
1783505264.447154,19:07:44.447,80812,819.311,23.76,1013.22,-1.459,-1.511,-0.045,0.048,-0.13,0.0,0.01,-0.13,-0.44,-0.54,9.78,107.88,-2.63,-3.19,255,0,0,0.0,0.0,0.0
1783505264.447185,19:07:44.447,80813,819.321,23.76,1013.22,-1.459,-1.512,-0.048,0.05,-0.11,0.0,0.0,-0.11,-0.44,-0.54,9.78,107.88,-2.63,-3.19,255,0,0,0.0,0.0,0.0
1783505264.447195,19:07:44.447,80814,819.331,23.76,1013.22,-1.459,-1.512,-0.048,0.05,-0.08,0.0,0.01,-0.08,-0.44,-0.54,9.78,107.88,-2.63,-3.19,255,0,0,0.0,0.0,0.0
1783505264.447203,19:07:44.447,80815,819.341,23.76,1013.22,-1.459,-1.507,-0.045,0.048,-0.059,-0.02,0.0,-0.06,-0.44,-0.54,9.78,107.88,-2.63,-3.19,255,0,0,0.0,0.0,0.0
1783505264.447556,19:07:44.447,80816,819.351,23.76,1013.22,-1.459,-1.507,-0.045,0.048,-0.059,-0.02,0.0,-0.06,-0.44,-0.54,9.78,107.88,-2.63,-3.19,255,0,0,0.0,0.0,0.0
1783505264.447569,19:07:44.447,80817,819.361,23.76,1013.22,-1.459,-1.508,-0.048,0.05,-0.11,0.0,0.0,-0.11,-0.44,-0.54,9.78,107.88,-2.63,-3.19,255,0,0,0.0,0.0,0.0
1783505264.447576,19:07:44.447,80818,819.371,23.76,1013.22,-1.459,-1.508,-0.048,0.05,-0.11,0.0,0.0,-0.11,-0.44,-0.54,9.78,107.88,-2.63,-3.19,255,0,0,0.0,0.0,0.0
1783505264.447584,19:07:44.447,80819,819.381,23.76,1013.22,-1.459,-1.509,-0.049,0.051,-0.08,-0.03,0.02,-0.08,-0.44,-0.54,9.78,107.88,-2.63,-3.19,255,0,0,0.0,0.0,0.0
1783505264.548928,19:07:44.548,80820,819.391,23.76,1013.22,-1.459,-1.504,-0.047,0.049,-0.07,-0.03,0.02,-0.07,-0.44,-0.54,9.78,107.88,-2.63,-3.19,255,0,0,0.0,0.0,0.0
1783505264.549081,19:07:44.549,80821,819.401,23.76,1013.22,-1.459,-1.504,-0.047,0.049,-0.07,-0.03,0.02,-0.07,-0.44,-0.54,9.78,107.88,-2.63,-3.19,255,0,0,0.0,0.0,0.0
1783505264.549096,19:07:44.549,80822,819.411,23.76,1013.22,-1.459,-1.505,-0.049,0.051,-0.088,-0.02,-0.02,-0.09,-0.44,-0.54,9.78,107.88,-2.63,-3.19,255,0,0,0.0,0.0,0.0
1783505264.549105,19:07:44.549,80823,819.421,23.76,1013.22,-1.459,-1.506,-0.05,0.052,-0.079,-0.02,0.01,-0.08,-0.44,-0.54,9.78,107.88,-2.63,-3.19,255,0,0,0.0,0.0,0.0
1783505264.549396,19:07:44.549,80824,819.431,23.76,1013.22,-1.459,-1.506,-0.051,0.053,-0.09,0.0,0.01,-0.09,-0.44,-0.54,9.78,107.88,-2.63,-3.19,255,0,0,0.0,0.0,0.0
1783505264.549407,19:07:44.549,80825,819.441,23.76,1013.22,-1.459,-1.502,-0.048,0.05,-0.099,-0.02,0.0,-0.1,-0.44,-0.54,9.78,107.88,-2.63,-3.19,255,0,0,0.0,0.0,0.0
1783505264.549415,19:07:44.549,80826,819.451,23.76,1013.22,-1.459,-1.503,-0.049,0.051,-0.11,0.0,0.0,-0.11,-0.44,-0.54,9.78,107.88,-2.63,-3.19,255,0,0,0.0,0.0,0.0
1783505264.549424,19:07:44.549,80827,819.461,23.76,1013.22,-1.459,-1.503,-0.049,0.051,-0.11,0.0,0.0,-0.11,-0.44,-0.54,9.78,107.88,-2.63,-3.19,255,0,0,0.0,0.0,0.0
1783505264.650925,19:07:44.650,80828,819.471,23.76,1013.22,-1.459,-1.504,-0.051,0.053,-0.11,0.0,0.0,-0.11,-0.44,-0.54,9.78,107.88,-2.63,-3.19,255,0,0,0.0,0.0,0.0
1783505264.650956,19:07:44.650,80829,819.481,23.76,1013.22,-1.459,-1.5,-0.049,0.051,-0.069,-0.02,0.0,-0.07,-0.44,-0.54,9.78,107.88,-2.63,-3.19,255,0,0,0.0,0.0,0.0
1783505264.650968,19:07:44.650,80830,819.491,23.76,1013.22,-1.459,-1.5,-0.049,0.051,-0.059,-0.02,0.0,-0.06,-0.44,-0.54,9.78,107.88,-2.63,-3.19,255,0,0,0.0,0.0,0.0
1783505264.650977,19:07:44.650,80831,819.501,23.76,1013.22,-1.459,-1.5,-0.049,0.051,-0.059,-0.02,0.0,-0.06,-0.44,-0.54,9.78,107.88,-2.63,-3.19,255,0,0,0.0,0.0,0.0
1783505264.651292,19:07:44.651,80832,819.511,23.76,1013.22,-1.459,-1.501,-0.052,0.054,-0.11,0.0,0.0,-0.11,-0.44,-0.54,9.78,107.88,-2.63,-3.19,255,0,0,0.0,0.0,0.0
1783505264.651304,19:07:44.651,80833,819.521,23.76,1013.22,-1.459,-1.502,-0.053,0.055,-0.1,0.0,0.01,-0.1,-0.44,-0.54,9.78,107.88,-2.63,-3.19,255,0,0,0.0,0.0,0.0
1783505264.651313,19:07:44.651,80834,819.531,23.76,1013.22,-1.459,-1.498,-0.05,0.052,-0.09,0.0,0.0,-0.09,-0.44,-0.54,9.78,107.88,-2.63,-3.19,255,0,0,0.0,0.0,0.0
1783505264.651323,19:07:44.651,80835,819.541,23.76,1013.22,-1.459,-1.498,-0.05,0.052,-0.09,0.0,0.0,-0.09,-0.44,-0.54,9.78,107.88,-2.63,-3.19,255,0,0,0.0,0.0,0.0
1783505264.651616,19:07:44.651,80836,819.551,23.76,1013.22,-1.459,-1.499,-0.052,0.054,-0.079,-0.04,0.01,-0.08,-0.44,-0.54,9.78,107.88,-2.63,-3.19,255,0,0,0.0,0.0,0.0
1783505264.651626,19:07:44.651,80837,819.561,23.76,1013.22,-1.459,-1.499,-0.053,0.055,-0.059,-0.02,0.0,-0.06,-0.44,-0.54,9.78,107.88,-2.63,-3.19,255,0,0,0.0,0.0,0.0
1783505264.651634,19:07:44.651,80838,819.571,23.76,1013.22,-1.459,-1.499,-0.053,0.055,-0.059,-0.02,0.0,-0.06,-0.44,-0.54,9.78,107.88,-2.63,-3.19,255,0,0,0.0,0.0,0.0
1783505264.651641,19:07:44.651,80839,819.581,23.76,1013.22,-1.459,-1.496,-0.051,0.053,-0.1,0.0,0.01,-0.1,-0.44,-0.54,9.78,107.88,-2.63,-3.19,255,0,0,0.0,0.0,0.0
1783505264.752262,19:07:44.752,80840,819.591,23.76,1013.22,-1.459,-1.496,-0.051,0.053,-0.1,0.0,0.01,-0.1,-0.44,-0.54,9.78,107.88,-2.63,-3.19,255,0,0,0.0,0.0,0.0
1783505264.752298,19:07:44.752,80841,819.601,23.76,1013.22,-1.459,-1.497,-0.053,0.055,-0.11,0.0,0.0,-0.11,-0.44,-0.54,9.78,107.88,-2.63,-3.19,255,0,0,0.0,0.0,0.0
1783505264.752309,19:07:44.752,80842,819.611,23.76,1013.22,-1.459,-1.497,-0.053,0.055,-0.11,0.0,0.0,-0.11,-0.44,-0.54,9.78,107.88,-2.63,-3.19,255,0,0,0.0,0.0,0.0
1783505264.752319,19:07:44.752,80843,819.621,23.76,1013.22,-1.459,-1.498,-0.055,0.056,-0.08,0.0,0.0,-0.08,-0.44,-0.54,9.78,107.88,-2.63,-3.19,255,0,0,0.0,0.0,0.0
1783505264.752768,19:07:44.752,80844,819.634,23.76,1013.21,-1.372,-1.486,0.069,0.071,-0.11,0.0,0.01,-0.11,-0.44,-0.54,9.78,107.88,-2.63,-3.19,255,0,0,0.0,0.0,0.0
1783505264.752780,19:07:44.752,80845,819.641,23.76,1013.21,-1.372,-1.486,0.069,0.071,-0.11,0.0,0.01,-0.11,-0.44,-0.54,9.78,107.88,-2.63,-3.19,255,0,0,0.0,0.0,0.0
1783505264.752789,19:07:44.752,80846,819.651,23.76,1013.21,-1.372,-1.485,0.068,0.069,-0.089,-0.02,0.0,-0.09,-0.44,-0.54,9.78,107.88,-2.63,-3.19,255,0,0,0.0,0.0,0.0
1783505264.752797,19:07:44.752,80847,819.661,23.76,1013.21,-1.372,-1.484,0.067,0.068,-0.1,-0.03,0.02,-0.1,-0.44,-0.54,9.78,107.88,-2.63,-3.19,255,0,0,0.0,0.0,0.0
1783505264.753046,19:07:44.753,80848,819.671,23.76,1013.21,-1.372,-1.473,0.062,0.064,-0.1,-0.03,0.02,-0.1,-0.44,-0.54,9.78,107.88,-2.63,-3.19,255,0,0,0.0,0.0,0.0
1783505264.753057,19:07:44.753,80849,819.681,23.76,1013.21,-1.372,-1.472,0.06,0.062,-0.078,-0.03,0.0,-0.08,-0.44,-0.54,9.78,107.88,-2.63,-3.19,255,0,0,0.0,0.0,0.0
1783505264.753065,19:07:44.753,80850,819.691,23.76,1013.21,-1.372,-1.471,0.06,0.061,-0.08,-0.02,0.02,-0.08,-0.44,-0.54,9.78,107.88,-2.63,-3.19,255,0,0,0.0,0.0,0.0
1783505264.753073,19:07:44.753,80851,819.701,23.76,1013.21,-1.372,-1.471,0.059,0.06,-0.109,-0.02,0.0,-0.11,-0.44,-0.54,9.78,107.88,-2.63,-3.19,255,0,0,0.0,0.0,0.0
1783505264.854411,19:07:44.854,80852,819.711,23.76,1013.21,-1.372,-1.47,0.058,0.059,-0.099,-0.02,0.01,-0.1,-0.44,-0.54,9.78,107.88,-2.63,-3.19,255,0,0,0.0,0.0,0.0
1783505264.854444,19:07:44.854,80853,819.721,23.76,1013.21,-1.372,-1.46,0.053,0.055,-0.09,0.0,0.0,-0.09,-0.44,-0.54,9.78,107.88,-2.63,-3.19,255,0,0,0.0,0.0,0.0
1783505264.854456,19:07:44.854,80854,819.731,23.76,1013.21,-1.372,-1.46,0.053,0.055,-0.09,0.0,0.0,-0.09,-0.44,-0.54,9.78,107.88,-2.63,-3.19,255,0,0,0.0,0.0,0.0
1783505264.854465,19:07:44.854,80855,819.741,23.76,1013.21,-1.372,-1.459,0.05,0.052,-0.11,0.0,0.01,-0.11,-0.44,-0.54,9.78,107.88,-2.63,-3.19,255,0,0,0.0,0.0,0.0
1783505264.854850,19:07:44.854,80856,819.751,23.76,1013.21,-1.372,-1.458,0.05,0.052,-0.109,-0.02,0.0,-0.11,-0.44,-0.54,9.78,107.88,-2.63,-3.19,255,0,0,0.0,0.0,0.0
1783505264.854861,19:07:44.854,80857,819.761,23.76,1013.21,-1.372,-1.449,0.045,0.047,-0.119,-0.02,0.01,-0.12,-0.44,-0.54,9.78,107.88,-2.63,-3.19,255,0,0,0.0,0.0,0.0
1783505264.854870,19:07:44.854,80858,819.771,23.76,1013.21,-1.372,-1.448,0.044,0.046,-0.087,-0.03,-0.02,-0.09,-0.44,-0.54,9.78,107.88,-2.63,-3.19,255,0,0,0.0,0.0,0.0
1783505264.854878,19:07:44.854,80859,819.781,23.76,1013.21,-1.372,-1.448,0.043,0.046,-0.079,-0.04,0.01,-0.08,-0.44,-0.54,9.78,107.88,-2.63,-3.19,255,0,0,0.0,0.0,0.0
1783505264.956014,19:07:44.956,80860,819.791,23.76,1013.21,-1.372,-1.448,0.042,0.045,-0.11,0.0,0.0,-0.11,-0.44,-0.54,9.78,107.88,-2.63,-3.19,255,0,0,0.0,0.0,0.0
1783505264.956046,19:07:44.956,80861,819.801,23.76,1013.21,-1.372,-1.447,0.041,0.044,-0.118,-0.04,0.01,-0.12,-0.44,-0.54,9.78,107.88,-2.63,-3.19,255,0,0,0.0,0.0,0.0
1783505264.956058,19:07:44.956,80862,819.811,23.76,1013.21,-1.372,-1.439,0.037,0.04,-0.11,0.0,0.0,-0.11,-0.44,-0.54,9.78,107.88,-2.63,-3.19,255,0,0,0.0,0.0,0.0
1783505264.956067,19:07:44.956,80863,819.821,23.76,1013.21,-1.372,-1.439,0.037,0.04,-0.11,0.0,0.0,-0.11,-0.44,-0.54,9.78,107.88,-2.63,-3.19,255,0,0,0.0,0.0,0.0
1783505264.956435,19:07:44.956,80864,819.831,23.76,1013.21,-1.372,-1.439,0.036,0.038,-0.07,0.0,0.0,-0.07,-0.44,-0.54,9.78,107.88,-2.63,-3.19,255,0,0,0.0,0.0,0.0
1783505264.956447,19:07:44.956,80865,819.841,23.76,1013.21,-1.372,-1.438,0.035,0.037,-0.079,-0.02,0.0,-0.08,-0.44,-0.54,9.78,107.88,-2.63,-3.19,255,0,0,0.0,0.0,0.0
1783505264.956457,19:07:44.956,80866,819.851,23.76,1013.21,-1.372,-1.438,0.034,0.036,-0.1,0.0,0.0,-0.1,-0.44,-0.54,9.78,107.88,-2.63,-3.19,255,0,0,0.0,0.0,0.0
1783505264.956465,19:07:44.956,80867,819.861,23.76,1013.21,-1.372,-1.431,0.03,0.033,-0.13,0.0,0.0,-0.13,-0.44,-0.54,9.78,107.88,-2.63,-3.19,255,0,0,0.0,0.0,0.0
1783505264.956719,19:07:44.956,80868,819.871,23.76,1013.21,-1.372,-1.431,0.03,0.033,-0.13,0.0,0.0,-0.13,-0.44,-0.54,9.78,107.88,-2.63,-3.19,255,0,0,0.0,0.0,0.0
1783505264.956729,19:07:44.956,80869,819.881,23.76,1013.21,-1.372,-1.43,0.029,0.032,-0.07,0.0,0.0,-0.07,-0.44,-0.54,9.78,107.88,-2.63,-3.19,255,0,0,0.0,0.0,0.0
1783505264.956737,19:07:44.956,80870,819.891,23.76,1013.21,-1.372,-1.43,0.028,0.031,-0.11,0.0,0.0,-0.11,-0.44,-0.54,9.78,107.88,-2.63,-3.19,255,0,0,0.0,0.0,0.0
1783505264.956744,19:07:44.956,80871,819.912,23.76,1013.21,-1.372,-1.424,0.023,0.027,-0.09,0.0,0.0,-0.09,-0.44,-0.54,9.78,107.88,-2.63,-3.19,255,0,0,0.0,0.0,0.0
1783505265.058147,19:07:45.058,80872,819.914,23.76,1013.21,-1.372,-1.424,0.023,0.027,-0.09,0.0,0.0,-0.09,-0.44,-0.54,9.78,107.88,-2.63,-3.19,255,0,0,0.0,0.0,0.0
1783505265.058187,19:07:45.058,80873,819.924,23.76,1013.21,-1.372,-1.424,0.023,0.027,-0.09,0.0,0.0,-0.09,-0.44,-0.54,9.78,107.88,-2.63,-3.19,255,0,0,0.0,0.0,0.0
1783505265.058199,19:07:45.058,80874,819.934,23.76,1013.21,-1.372,-1.423,0.022,0.025,-0.1,0.0,0.01,-0.1,-0.44,-0.54,9.78,107.88,-2.63,-3.19,255,0,0,0.0,0.0,0.0
1783505265.058209,19:07:45.058,80875,819.944,23.76,1013.21,-1.372,-1.423,0.022,0.025,-0.1,0.0,0.01,-0.1,-0.44,-0.54,9.78,107.88,-2.63,-3.19,255,0,0,0.0,0.0,0.0
1783505265.058635,19:07:45.058,80876,819.954,23.76,1013.21,-1.372,-1.418,0.018,0.023,-0.131,0.0,0.02,-0.13,-0.44,-0.54,9.78,107.88,-2.63,-3.19,255,0,0,0.0,0.0,0.0
1783505265.058650,19:07:45.058,80877,819.964,23.76,1013.21,-1.372,-1.418,0.018,0.023,-0.131,0.0,0.02,-0.13,-0.44,-0.54,9.78,107.88,-2.63,-3.19,255,0,0,0.0,0.0,0.0
1783505265.058659,19:07:45.058,80878,819.974,23.76,1013.21,-1.372,-1.417,0.016,0.021,-0.109,0.0,-0.02,-0.11,-0.44,-0.54,9.78,107.88,-2.63,-3.19,255,0,0,0.0,0.0,0.0
1783505265.058667,19:07:45.058,80879,819.984,23.76,1013.21,-1.372,-1.417,0.015,0.02,-0.1,0.0,0.0,-0.1,-0.44,-0.54,9.78,107.88,-2.63,-3.19,255,0,0,0.0,0.0,0.0
1783505265.166266,19:07:45.166,80880,819.994,23.76,1013.21,-1.372,-1.417,0.015,0.02,-0.1,0.0,0.0,-0.1,-0.44,-0.54,9.78,107.88,-2.63,-3.19,255,0,0,0.0,0.0,0.0
1783505265.166303,19:07:45.166,80881,820.004,23.76,1013.21,-1.372,-1.412,0.013,0.018,-0.091,0.0,0.02,-0.09,-0.44,-0.54,9.78,107.88,-2.63,-3.19,255,0,0,0.0,0.0,0.0
1783505265.166316,19:07:45.166,80882,820.014,23.76,1013.21,-1.372,-1.412,0.012,0.018,-0.1,0.0,0.01,-0.1,-0.44,-0.54,9.78,107.88,-2.63,-3.19,255,0,0,0.0,0.0,0.0
1783505265.166325,19:07:45.166,80883,820.024,23.76,1013.21,-1.372,-1.412,0.012,0.018,-0.1,0.0,0.01,-0.1,-0.44,-0.54,9.78,107.88,-2.63,-3.19,255,0,0,0.0,0.0,0.0
1783505265.166749,19:07:45.166,80884,820.034,23.76,1013.21,-1.372,-1.412,0.01,0.016,-0.1,0.0,0.0,-0.1,-0.44,-0.54,9.78,107.88,-2.63,-3.19,255,0,0,0.0,0.0,0.0
1783505265.166761,19:07:45.166,80885,820.044,23.76,1013.21,-1.372,-1.408,0.008,0.015,-0.099,-0.03,0.01,-0.1,-0.44,-0.54,9.78,107.88,-2.63,-3.19,255,0,0,0.0,0.0,0.0
1783505265.166805,19:07:45.166,80886,820.054,23.76,1013.21,-1.372,-1.408,0.008,0.015,-0.099,-0.03,0.01,-0.1,-0.44,-0.54,9.78,107.88,-2.63,-3.19,255,0,0,0.0,0.0,0.0
1783505265.166815,19:07:45.166,80887,820.064,23.76,1013.21,-1.372,-1.408,0.006,0.014,-0.089,-0.02,0.0,-0.09,-0.44,-0.54,9.78,107.88,-2.63,-3.19,255,0,0,0.0,0.0,0.0
1783505265.167058,19:07:45.167,80888,820.074,23.76,1013.21,-1.372,-1.408,0.006,0.014,-0.089,-0.02,0.0,-0.09,-0.44,-0.54,9.78,107.88,-2.63,-3.19,255,0,0,0.0,0.0,0.0
1783505265.167069,19:07:45.167,80889,820.084,23.76,1013.21,-1.372,-1.408,0.003,0.013,-0.06,0.0,0.01,-0.06,-0.44,-0.54,9.78,107.88,-2.63,-3.19,255,0,0,0.0,0.0,0.0
1783505265.167077,19:07:45.167,80890,820.094,23.76,1013.21,-1.372,-1.404,0.002,0.013,-0.121,0.0,0.02,-0.12,-0.44,-0.54,9.78,107.88,-2.63,-3.19,255,0,0,0.0,0.0,0.0
1783505265.167085,19:07:45.167,80891,820.104,23.76,1013.21,-1.372,-1.404,0.001,0.013,-0.12,0.0,0.01,-0.12,-0.44,-0.54,9.78,107.88,-2.63,-3.19,255,0,0,0.0,0.0,0.0
1783505265.267976,19:07:45.267,80892,820.114,23.76,1013.21,-1.372,-1.404,0.001,0.013,-0.12,0.0,0.01,-0.12,-0.44,-0.54,9.78,107.88,-2.63,-3.19,255,0,0,0.0,0.0,0.0
1783505265.268018,19:07:45.268,80893,820.124,23.76,1013.21,-1.372,-1.404,-0.001,0.012,-0.089,0.0,-0.02,-0.09,-0.44,-0.54,9.78,107.88,-2.63,-3.19,255,0,0,0.0,0.0,0.0
1783505265.268031,19:07:45.268,80894,820.134,23.76,1013.21,-1.372,-1.404,-0.002,0.012,-0.059,-0.02,0.0,-0.06,-0.44,-0.54,9.78,107.88,-2.63,-3.19,255,0,0,0.0,0.0,0.0
1783505265.268041,19:07:45.268,80895,820.144,23.76,1013.21,-1.372,-1.401,-0.003,0.012,-0.06,0.0,0.0,-0.06,-0.44,-0.54,9.78,107.88,-2.63,-3.19,255,0,0,0.0,0.0,0.0
1783505265.268451,19:07:45.268,80896,820.154,23.76,1013.21,-1.372,-1.401,-0.004,0.012,-0.109,-0.02,0.0,-0.11,-0.44,-0.54,9.78,107.88,-2.63,-3.19,255,0,0,0.0,0.0,0.0
1783505265.268463,19:07:45.268,80897,820.164,23.76,1013.21,-1.372,-1.401,-0.004,0.013,-0.09,-0.02,0.02,-0.09,-0.44,-0.54,9.78,107.88,-2.63,-3.19,255,0,0,0.0,0.0,0.0
1783505265.268472,19:07:45.268,80898,820.174,23.76,1013.21,-1.372,-1.401,-0.005,0.013,-0.09,0.0,0.0,-0.09,-0.44,-0.54,9.78,107.88,-2.63,-3.19,255,0,0,0.0,0.0,0.0
1783505265.268480,19:07:45.268,80899,820.184,23.76,1013.21,-1.372,-1.398,-0.006,0.013,-0.09,0.0,0.0,-0.09,-0.44,-0.54,9.78,107.88,-2.63,-3.19,255,0,0,0.0,0.0,0.0
