host_unix,host_time,seq,up_ms,temp_c,press_hpa,alt_baro_m,alt_fused_m,vel_m_s,az_m_s2,heading,roll,pitch,calib,vstate,elev,servo_deg
1782726305.288953,18:45:05.288,5307,55.975,29.36,1010.51,-0.413,-0.472,0.43,0.0,212.69,-1.56,-2.75,246,1,1,30.0
1782726305.289005,18:45:05.289,5308,55.984,29.36,1010.51,-0.413,-0.468,0.429,-0.123,212.69,-1.56,-2.75,246,1,1,30.0
1782726305.289015,18:45:05.289,5309,55.996,29.36,1010.51,-0.413,-0.464,0.429,0.0,212.69,-1.56,-2.75,246,1,1,30.0
1782726305.289022,18:45:05.289,5310,56.004,29.36,1010.51,-0.413,-0.451,0.322,0.0,212.69,-1.56,-2.75,246,1,1,30.0
1782726305.289029,18:45:05.289,5311,56.016,29.36,1010.51,-0.413,-0.447,0.322,0.0,212.69,-1.56,-2.75,246,1,1,30.0
1782726305.289364,18:45:05.289,5312,56.026,29.36,1010.51,-0.413,-0.444,0.322,0.0,212.69,-1.56,-2.75,246,1,1,30.0
1782726305.289373,18:45:05.289,5313,56.034,29.36,1010.51,-0.413,-0.441,0.321,-0.144,212.69,-1.56,-2.75,246,1,1,30.0
1782726305.289380,18:45:05.289,5314,56.045,29.36,1010.51,-0.413,-0.437,0.321,0.0,212.69,-1.56,-2.75,246,1,1,30.0
1782726305.289385,18:45:05.289,5315,56.055,29.36,1010.51,-0.413,-0.43,0.24,0.0,212.69,-1.56,-2.75,246,1,1,30.0
1782726305.289391,18:45:05.289,5316,56.064,29.36,1010.51,-0.413,-0.428,0.24,0.0,212.69,-1.56,-2.75,246,1,1,30.0
1782726305.289396,18:45:05.289,5317,56.075,29.36,1010.51,-0.413,-0.425,0.24,0.0,212.69,-1.56,-2.75,246,1,1,30.0
1782726305.397690,18:45:05.397,5318,56.084,29.36,1010.51,-0.413,-0.423,0.239,-0.153,212.69,-1.56,-2.75,246,1,1,30.0
1782726305.397722,18:45:05.397,5319,56.095,29.36,1010.51,-0.413,-0.42,0.239,0.0,212.69,-1.56,-2.75,246,1,1,30.0
1782726305.397731,18:45:05.397,5320,56.105,29.36,1010.51,-0.413,-0.417,0.179,0.0,212.69,-1.56,-2.75,246,1,1,30.0
1782726305.397737,18:45:05.397,5321,56.115,29.36,1010.51,-0.413,-0.415,0.179,0.0,212.69,-1.56,-2.75,246,1,1,30.0
1782726305.397743,18:45:05.397,5322,56.125,29.36,1010.51,-0.413,-0.414,0.179,0.0,212.69,-1.56,-2.75,246,1,1,30.0
1782726305.397748,18:45:05.397,5323,56.134,29.36,1010.51,-0.413,-0.412,0.178,-0.155,212.69,-1.56,-2.75,246,1,1,30.0
1782726305.398075,18:45:05.398,5324,56.146,29.36,1010.51,-0.413,-0.41,0.176,-0.165,212.69,-1.56,-2.75,246,1,1,30.0
1782726305.398085,18:45:05.398,5325,56.155,29.37,1010.51,-0.413,-0.409,0.131,-0.174,212.69,-1.56,-2.75,246,1,1,30.0
1782726305.398091,18:45:05.398,5326,56.166,29.37,1010.51,-0.413,-0.408,0.129,-0.164,212.69,-1.56,-2.75,246,1,1,30.0
1782726305.398097,18:45:05.398,5327,56.176,29.37,1010.51,-0.413,-0.407,0.129,0.0,212.69,-1.56,-2.75,246,1,1,30.0
1782726305.398103,18:45:05.398,5328,56.184,29.37,1010.51,-0.413,-0.405,0.127,-0.194,212.69,-1.56,-2.75,246,1,1,30.0
1782726305.506174,18:45:05.506,5329,56.195,29.37,1010.51,-0.413,-0.404,0.126,-0.144,212.69,-1.56,-2.75,246,1,1,30.0
1782726305.506365,18:45:05.506,5330,56.205,29.37,1010.51,-0.413,-0.405,0.093,-0.113,212.69,-1.56,-2.75,246,0,1,30.0
1782726305.506378,18:45:05.506,5331,56.215,29.37,1010.51,-0.413,-0.404,0.092,-0.145,212.69,-1.56,-2.75,246,0,1,30.0
1782726305.506385,18:45:05.506,5332,56.225,29.37,1010.51,-0.413,-0.403,0.091,-0.135,212.69,-1.56,-2.75,246,0,1,30.0
1782726305.506392,18:45:05.506,5333,56.234,29.37,1010.51,-0.413,-0.402,0.089,-0.136,212.69,-1.56,-2.75,246,0,1,30.0
1782726305.506397,18:45:05.506,5334,56.245,29.37,1010.51,-0.413,-0.401,0.088,-0.134,212.69,-1.56,-2.75,246,0,1,30.0
1782726305.506667,18:45:05.506,5335,56.256,29.36,1010.51,-0.413,-0.403,0.065,-0.144,212.69,-1.56,-2.75,246,0,1,30.0
1782726305.506676,18:45:05.506,5336,56.265,29.36,1010.51,-0.413,-0.402,0.065,0.0,212.69,-1.56,-2.75,246,0,1,30.0
1782726305.506682,18:45:05.506,5337,56.275,29.36,1010.51,-0.413,-0.402,0.063,-0.172,212.69,-1.56,-2.75,246,0,1,30.0
1782726305.506689,18:45:05.506,5338,56.284,29.36,1010.51,-0.413,-0.401,0.061,-0.173,212.69,-1.56,-2.75,246,0,1,30.0
1782726305.506694,18:45:05.506,5339,56.295,29.36,1010.51,-0.413,-0.401,0.06,-0.142,212.69,-1.56,-2.75,246,0,1,30.0
1782726305.506700,18:45:05.506,5340,56.305,29.37,1010.51,-0.413,-0.403,0.045,0.0,212.69,-1.56,-2.75,246,0,1,30.0
1782726305.614996,18:45:05.614,5341,56.315,29.37,1010.51,-0.413,-0.402,0.045,0.0,212.69,-1.56,-2.75,246,0,1,30.0
1782726305.615031,18:45:05.615,5342,56.324,29.37,1010.51,-0.413,-0.402,0.044,-0.114,212.69,-1.56,-2.75,246,0,1,30.0
1782726305.615040,18:45:05.615,5343,56.334,29.37,1010.51,-0.413,-0.401,0.043,-0.134,212.69,-1.56,-2.75,246,0,1,30.0
1782726305.615047,18:45:05.615,5344,56.344,29.37,1010.51,-0.413,-0.401,0.041,-0.115,212.69,-1.56,-2.75,246,0,1,30.0
1782726305.615053,18:45:05.615,5345,56.354,29.37,1010.51,-0.413,-0.403,0.03,-0.155,212.69,-1.56,-2.75,246,0,1,30.0
1782726305.615058,18:45:05.615,5346,56.364,29.37,1010.51,-0.413,-0.403,0.029,-0.134,212.69,-1.56,-2.75,246,0,1,30.0
1782726305.615412,18:45:05.615,5347,56.374,29.37,1010.51,-0.413,-0.402,0.027,-0.173,212.69,-1.56,-2.75,246,0,1,30.0
1782726305.615422,18:45:05.615,5348,56.384,29.37,1010.51,-0.413,-0.402,0.026,-0.104,212.69,-1.56,-2.75,246,0,1,30.0
1782726305.615428,18:45:05.615,5349,56.394,29.37,1010.51,-0.413,-0.402,0.025,-0.104,212.69,-1.56,-2.75,246,0,1,30.0
1782726305.615433,18:45:05.615,5350,56.404,29.37,1010.51,-0.413,-0.404,0.017,-0.154,212.69,-1.56,-2.75,246,0,1,30.0
1782726305.615439,18:45:05.615,5351,56.414,29.37,1010.51,-0.413,-0.404,0.016,-0.163,212.69,-1.56,-2.75,246,0,1,30.0
1782726305.615445,18:45:05.615,5352,56.424,29.37,1010.51,-0.413,-0.404,0.014,-0.144,212.69,-1.56,-2.75,246,0,1,30.0
1782726305.723651,18:45:05.723,5353,56.434,29.37,1010.51,-0.413,-0.404,0.013,-0.175,212.69,-1.56,-2.75,246,0,1,30.0
1782726305.723684,18:45:05.723,5354,56.444,29.37,1010.51,-0.413,-0.403,0.011,-0.133,212.69,-1.56,-2.75,246,0,1,30.0
1782726305.723692,18:45:05.723,5355,56.454,29.36,1010.51,-0.413,-0.405,0.007,-0.143,212.69,-1.56,-2.75,246,0,1,30.0
1782726305.723698,18:45:05.723,5356,56.464,29.36,1010.51,-0.413,-0.405,0.006,-0.153,212.69,-1.56,-2.75,246,0,1,30.0
1782726305.723770,18:45:05.723,5357,56.474,29.36,1010.51,-0.413,-0.405,0.004,-0.143,212.69,-1.56,-2.75,246,0,1,30.0
1782726305.724088,18:45:05.724,5358,56.484,29.36,1010.51,-0.413,-0.405,0.003,-0.143,212.69,-1.56,-2.75,246,0,1,30.0
1782726305.724096,18:45:05.724,5359,56.494,29.36,1010.51,-0.413,-0.405,0.002,-0.143,212.69,-1.56,-2.75,246,0,1,30.0
1782726305.724102,18:45:05.724,5360,56.505,29.37,1010.51,-0.413,-0.407,0.0,-0.154,212.69,-1.56,-2.75,246,0,1,30.0
1782726305.724108,18:45:05.724,5361,56.514,29.37,1010.51,-0.413,-0.407,-0.002,-0.155,212.69,-1.56,-2.75,246,0,1,30.0
1782726305.724114,18:45:05.724,5362,56.524,29.37,1010.51,-0.413,-0.407,-0.003,-0.155,212.69,-1.56,-2.75,246,0,1,30.0
1782726305.831741,18:45:05.831,5363,56.534,29.37,1010.51,-0.413,-0.407,-0.005,-0.144,212.69,-1.56,-2.75,246,0,1,30.0
1782726305.831773,18:45:05.831,5364,56.544,29.37,1010.51,-0.413,-0.407,-0.006,-0.134,212.69,-1.56,-2.75,246,0,1,30.0
1782726305.831783,18:45:05.831,5365,56.554,29.37,1010.51,-0.413,-0.408,-0.004,0.0,212.69,-1.56,-2.75,246,0,1,30.0
1782726305.831790,18:45:05.831,5366,56.567,29.37,1010.51,-0.413,-0.408,-0.004,0.0,212.69,-1.56,-2.75,246,0,1,30.0
1782726305.831796,18:45:05.831,5367,56.574,29.37,1010.51,-0.413,-0.408,-0.006,-0.164,212.69,-1.56,-2.75,246,0,1,30.0
1782726305.832117,18:45:05.832,5368,56.584,29.37,1010.51,-0.413,-0.408,-0.007,-0.174,212.69,-1.56,-2.75,246,0,1,30.0
1782726305.832126,18:45:05.832,5369,56.595,29.37,1010.51,-0.413,-0.409,-0.009,-0.143,212.69,-1.56,-2.75,246,0,1,30.0
1782726305.832133,18:45:05.832,5370,56.604,29.37,1010.51,-0.413,-0.41,-0.007,-0.114,212.69,-1.56,-2.75,246,0,1,30.0
1782726305.832138,18:45:05.832,5371,56.614,29.37,1010.51,-0.413,-0.41,-0.009,-0.163,212.69,-1.56,-2.75,246,0,1,30.0
1782726305.832144,18:45:05.832,5372,56.624,29.37,1010.51,-0.413,-0.41,-0.011,-0.154,212.69,-1.56,-2.75,246,0,1,30.0
1782726305.832149,18:45:05.832,5373,56.634,29.37,1010.51,-0.413,-0.41,-0.012,-0.135,212.69,-1.56,-2.75,246,0,1,30.0
1782726305.940365,18:45:05.940,5374,56.644,29.37,1010.51,-0.413,-0.41,-0.014,-0.175,212.69,-1.56,-2.75,246,0,1,30.0
1782726305.940391,18:45:05.940,5375,56.654,29.37,1010.51,-0.413,-0.411,-0.011,-0.145,212.69,-1.56,-2.75,246,0,1,30.0
1782726305.940399,18:45:05.940,5376,56.664,29.37,1010.51,-0.413,-0.411,-0.011,0.0,212.69,-1.56,-2.75,246,0,1,30.0
1782726305.940406,18:45:05.940,5377,56.674,29.37,1010.51,-0.413,-0.411,-0.013,-0.154,212.69,-1.56,-2.75,246,0,1,30.0
1782726305.940411,18:45:05.940,5378,56.684,29.37,1010.51,-0.413,-0.411,-0.014,-0.124,212.69,-1.56,-2.75,246,0,1,30.0
1782726305.940710,18:45:05.940,5379,56.694,29.37,1010.51,-0.413,-0.411,-0.014,0.0,212.69,-1.56,-2.75,246,0,1,30.0
1782726305.940718,18:45:05.940,5380,56.704,29.37,1010.51,-0.413,-0.412,-0.012,-0.175,212.69,-1.56,-2.75,246,0,1,30.0
1782726305.940723,18:45:05.940,5381,56.714,29.37,1010.51,-0.413,-0.412,-0.013,-0.153,212.69,-1.56,-2.75,246,0,1,30.0
1782726305.940729,18:45:05.940,5382,56.724,29.37,1010.51,-0.413,-0.412,-0.015,-0.124,212.69,-1.56,-2.75,246,0,1,30.0
1782726305.940735,18:45:05.940,5383,56.735,29.37,1010.51,-0.413,-0.412,-0.016,-0.154,212.69,-1.56,-2.75,246,0,1,30.0
1782726306.048011,18:45:06.048,5384,56.744,29.37,1010.51,-0.413,-0.412,-0.018,-0.133,212.69,-1.56,-2.75,246,0,1,30.0
1782726306.048044,18:45:06.048,5385,56.754,29.37,1010.52,-0.499,-0.43,-0.443,-0.155,212.69,-1.56,-2.75,246,2,1,30.0
1782726306.048052,18:45:06.048,5386,56.765,29.37,1010.52,-0.499,-0.434,-0.445,-0.164,212.69,-1.56,-2.75,246,2,1,30.0
1782726306.048058,18:45:06.048,5387,56.775,29.37,1010.52,-0.499,-0.439,-0.447,-0.165,212.69,-1.56,-2.75,246,2,1,30.0
1782726306.048064,18:45:06.048,5388,56.785,29.37,1010.52,-0.499,-0.443,-0.448,-0.135,212.69,-1.56,-2.75,246,2,1,30.0
1782726306.048392,18:45:06.048,5389,56.795,29.37,1010.52,-0.499,-0.448,-0.449,-0.145,212.69,-1.56,-2.75,246,2,1,30.0
1782726306.048401,18:45:06.048,5390,56.805,29.37,1010.52,-0.499,-0.462,-0.338,-0.134,212.69,-1.56,-2.75,246,2,1,30.0
1782726306.048407,18:45:06.048,5391,56.815,29.37,1010.52,-0.499,-0.465,-0.338,0.0,212.69,-1.56,-2.75,246,2,1,30.0
1782726306.048413,18:45:06.048,5392,56.825,29.37,1010.52,-0.499,-0.469,-0.339,-0.154,212.69,-1.56,-2.75,246,2,1,30.0
1782726306.048418,18:45:06.048,5393,56.835,29.37,1010.52,-0.499,-0.472,-0.341,-0.123,212.69,-1.56,-2.75,246,2,1,30.0
1782726306.156262,18:45:06.156,5394,56.845,29.37,1010.52,-0.499,-0.475,-0.342,-0.153,212.69,-1.56,-2.75,246,2,1,30.0
1782726306.156296,18:45:06.156,5395,56.855,29.37,1010.52,-0.499,-0.483,-0.258,-0.173,212.69,-1.56,-2.75,246,2,1,30.0
1782726306.156304,18:45:06.156,5396,56.865,29.37,1010.52,-0.499,-0.486,-0.259,-0.143,212.69,-1.56,-2.75,246,2,1,30.0
1782726306.156311,18:45:06.156,5397,56.875,29.37,1010.52,-0.499,-0.488,-0.261,-0.144,212.69,-1.56,-2.75,246,2,1,30.0
1782726306.156317,18:45:06.156,5398,56.885,29.37,1010.52,-0.499,-0.491,-0.262,-0.133,212.69,-1.56,-2.75,246,2,1,30.0
1782726306.156636,18:45:06.156,5399,56.895,29.37,1010.52,-0.499,-0.493,-0.264,-0.133,212.69,-1.56,-2.75,246,2,1,30.0
1782726306.156645,18:45:06.156,5400,56.905,29.37,1010.52,-0.499,-0.497,-0.199,-0.164,212.69,-1.56,-2.75,246,2,1,30.0
1782726306.156651,18:45:06.156,5401,56.915,29.37,1010.52,-0.499,-0.499,-0.199,0.0,212.69,-0.06,-0.06,246,2,1,30.0
1782726306.156657,18:45:06.156,5402,56.922,29.37,1010.52,-0.499,-0.5,-0.199,0.0,212.69,-0.06,-0.06,246,2,1,30.0
1782726306.156663,18:45:06.156,5403,56.935,29.37,1010.52,-0.499,-0.503,-0.199,0.0,212.69,-0.06,-0.06,246,2,1,30.0
1782726306.156669,18:45:06.156,5404,56.945,29.37,1010.52,-0.499,-0.505,-0.199,0.0,212.69,-0.06,-0.06,246,2,1,30.0
1782726306.264984,18:45:06.264,5405,56.955,29.37,1010.52,-0.499,-0.505,-0.149,0.0,212.69,-0.06,-0.06,246,2,1,30.0
1782726306.265023,18:45:06.265,5406,56.965,29.37,1010.52,-0.499,-0.507,-0.149,0.0,212.69,-0.06,-0.06,246,2,1,30.0
1782726306.265077,18:45:06.265,5407,56.975,29.37,1010.52,-0.499,-0.508,-0.149,0.0,212.69,-0.06,-0.06,246,2,1,30.0
1782726306.265085,18:45:06.265,5408,56.985,29.37,1010.52,-0.499,-0.51,-0.149,0.0,212.69,-0.06,-0.06,246,2,1,30.0
1782726306.265092,18:45:06.265,5409,56.995,29.37,1010.52,-0.499,-0.511,-0.149,0.0,212.69,-0.06,-0.06,246,2,1,30.0
1782726306.265456,18:45:06.265,5410,57.005,29.37,1010.52,-0.499,-0.51,-0.112,0.0,212.69,-0.06,-0.06,246,2,1,30.0
1782726306.265465,18:45:06.265,5411,57.012,29.37,1010.52,-0.499,-0.511,-0.112,0.0,212.69,-0.06,-0.06,246,2,1,30.0
1782726306.265471,18:45:06.265,5412,57.025,29.37,1010.52,-0.499,-0.512,-0.112,0.0,212.69,-0.06,-0.06,246,2,1,30.0
1782726306.265476,18:45:06.265,5413,57.035,29.37,1010.52,-0.499,-0.513,-0.112,0.0,212.69,-0.06,-0.06,246,2,1,30.0
1782726306.265482,18:45:06.265,5414,57.045,29.37,1010.52,-0.499,-0.514,-0.112,0.0,212.69,-1.56,-2.75,246,2,1,30.0
1782726306.265487,18:45:06.265,5415,57.055,29.37,1010.52,-0.499,-0.512,-0.084,0.0,212.69,-0.06,-0.06,246,0,1,30.0
1782726306.373645,18:45:06.373,5416,57.065,29.37,1010.52,-0.499,-0.513,-0.084,0.0,212.69,-0.06,-0.06,246,0,1,30.0
1782726306.373673,18:45:06.373,5417,57.075,29.37,1010.52,-0.499,-0.514,-0.084,0.0,212.69,-0.06,-0.06,246,0,1,30.0
1782726306.373681,18:45:06.373,5418,57.085,29.37,1010.52,-0.499,-0.515,-0.084,0.0,212.69,-0.06,-0.06,246,0,1,30.0
1782726306.373687,18:45:06.373,5419,57.095,29.37,1010.52,-0.499,-0.516,-0.085,-0.16,212.69,-1.56,-2.75,246,0,1,30.0
1782726306.373693,18:45:06.373,5420,57.104,29.37,1010.52,-0.499,-0.513,-0.064,0.0,212.88,-1.56,-2.75,246,0,1,30.0
1782726306.373699,18:45:06.373,5421,57.112,29.37,1010.52,-0.499,-0.514,-0.064,0.0,212.88,-1.56,-2.75,246,0,1,30.0
1782726306.373975,18:45:06.373,5422,57.122,29.37,1010.52,-0.499,-0.514,-0.064,0.0,212.88,-1.56,-2.75,246,0,1,30.0
1782726306.373983,18:45:06.373,5423,57.135,29.37,1010.52,-0.499,-0.515,-0.064,0.0,213.63,-0.06,-0.06,246,0,1,30.0
1782726306.373989,18:45:06.373,5424,57.144,29.37,1010.52,-0.499,-0.516,-0.064,0.0,213.94,-1.5,-2.75,246,0,1,30.0
1782726306.373994,18:45:06.373,5425,57.154,29.37,1010.52,-0.499,-0.513,-0.048,0.0,214.25,-1.5,-2.75,246,0,1,30.0
1782726306.374000,18:45:06.374,5426,57.165,29.37,1010.52,-0.499,-0.513,-0.048,0.0,214.5,-0.06,-0.06,246,0,1,30.0
1782726306.482171,18:45:06.482,5427,57.172,29.37,1010.52,-0.499,-0.514,-0.048,0.0,214.5,-0.06,-0.06,246,0,1,30.0
1782726306.482200,18:45:06.482,5428,57.185,29.37,1010.52,-0.499,-0.514,-0.048,0.0,214.81,-0.06,-0.06,246,0,1,30.0
1782726306.482207,18:45:06.482,5429,57.194,29.37,1010.52,-0.499,-0.515,-0.048,0.0,214.81,-1.44,-2.81,246,0,1,30.0
1782726306.482212,18:45:06.482,5430,57.204,29.37,1010.52,-0.499,-0.512,-0.036,0.0,214.81,-1.44,-2.81,246,0,1,30.0
1782726306.482219,18:45:06.482,5431,57.215,29.37,1010.52,-0.499,-0.512,-0.036,0.0,214.81,-0.06,-0.06,246,0,1,30.0
1782726306.482226,18:45:06.482,5432,57.222,29.37,1010.52,-0.499,-0.513,-0.036,0.0,214.81,-0.06,-0.06,246,0,1,30.0
1782726306.482527,18:45:06.482,5433,57.235,29.37,1010.52,-0.499,-0.513,-0.036,0.0,214.94,-0.06,-0.06,246,0,1,30.0
1782726306.482535,18:45:06.482,5434,57.244,29.37,1010.52,-0.499,-0.514,-0.036,0.0,214.94,-1.44,-2.81,246,0,1,30.0
1782726306.482541,18:45:06.482,5435,57.255,29.37,1010.52,-0.499,-0.511,-0.028,-0.155,215.06,-1.44,-2.81,246,0,1,30.0
1782726306.482547,18:45:06.482,5436,57.265,29.37,1010.52,-0.499,-0.511,-0.028,0.0,215.19,-1.44,-2.81,246,0,1,30.0
1782726306.482553,18:45:06.482,5437,57.275,29.37,1010.52,-0.499,-0.512,-0.028,0.0,215.19,-0.06,-0.06,246,0,1,30.0
1782726306.590861,18:45:06.590,5438,57.285,29.37,1010.52,-0.499,-0.512,-0.028,0.0,215.19,-0.06,-0.06,246,0,1,30.0
1782726306.591077,18:45:06.591,5439,57.295,29.37,1010.52,-0.499,-0.512,-0.03,-0.164,215.19,-1.44,-2.81,246,0,1,30.0
1782726306.591094,18:45:06.591,5440,57.305,29.37,1010.52,-0.499,-0.51,-0.023,-0.141,215.19,-1.44,-2.81,246,0,1,30.0
1782726306.591103,18:45:06.591,5441,57.316,29.37,1010.52,-0.499,-0.51,-0.023,0.0,215.19,-1.44,-2.81,246,0,1,30.0
1782726306.591111,18:45:06.591,5442,57.322,29.37,1010.52,-0.499,-0.51,-0.023,0.0,215.19,-1.44,-2.81,246,0,1,30.0
1782726306.591119,18:45:06.591,5443,57.335,29.37,1010.52,-0.499,-0.511,-0.023,0.0,215.06,-0.06,-0.06,246,0,1,30.0
1782726306.591455,18:45:06.591,5444,57.345,29.37,1010.52,-0.499,-0.511,-0.023,0.0,215.06,-1.44,-2.81,246,0,1,30.0
1782726306.591467,18:45:06.591,5445,57.355,29.36,1010.51,-0.413,-0.491,0.413,0.0,215.06,-1.44,-2.81,246,1,1,30.0
1782726306.591475,18:45:06.591,5446,57.365,29.36,1010.51,-0.413,-0.487,0.413,0.0,215.06,-1.56,-2.81,246,1,1,30.0
1782726306.591483,18:45:06.591,5447,57.375,29.36,1010.51,-0.413,-0.483,0.413,0.0,215.06,-0.06,-0.06,246,1,1,30.0
1782726306.591491,18:45:06.591,5448,57.385,29.36,1010.51,-0.413,-0.479,0.413,0.0,215.06,-0.06,-0.06,246,1,1,30.0
1782726306.701872,18:45:06.701,5449,57.395,29.36,1010.51,-0.413,-0.475,0.413,0.0,215.06,-1.63,-3.19,246,1,1,30.0
1782726306.701900,18:45:06.701,5450,57.404,29.36,1010.51,-0.413,-0.459,0.31,0.0,215.06,-1.63,-3.5,246,1,1,30.0
1782726306.701907,18:45:06.701,5451,57.415,29.36,1010.51,-0.413,-0.456,0.31,0.0,215.06,-1.63,-4.0,246,1,1,30.0
1782726306.701913,18:45:06.701,5452,57.425,29.36,1010.51,-0.413,-0.453,0.31,0.0,215.06,-0.06,-0.06,246,1,1,30.0
1782726306.701918,18:45:06.701,5453,57.432,29.36,1010.51,-0.413,-0.451,0.31,0.0,215.06,-0.06,-0.06,246,1,1,30.0
1782726306.701924,18:45:06.701,5454,57.443,29.36,1010.51,-0.413,-0.447,0.31,0.0,215.06,-0.06,-0.06,246,1,1,30.0
1782726306.702152,18:45:06.702,5455,57.454,29.36,1010.51,-0.413,-0.438,0.232,0.0,214.5,-1.75,-6.81,246,1,1,30.0
1782726306.702159,18:45:06.702,5456,57.465,29.36,1010.51,-0.413,-0.435,0.232,0.0,214.38,-1.75,-7.31,246,1,1,30.0
1782726306.702214,18:45:06.702,5457,57.475,29.36,1010.51,-0.413,-0.433,0.232,0.0,214.25,-0.06,-0.06,246,1,1,30.0
1782726306.702220,18:45:06.702,5458,57.485,29.36,1010.51,-0.413,-0.431,0.232,0.0,214.25,-0.06,-0.06,246,1,1,30.0
1782726306.702226,18:45:06.702,5459,57.493,29.36,1010.51,-0.413,-0.429,0.232,0.0,214.25,-0.06,-0.06,246,1,1,30.0
1782726306.810315,18:45:06.810,5460,57.503,29.36,1010.51,-0.413,-0.424,0.174,0.0,214.25,-0.06,-0.06,246,1,1,30.0
1782726306.810351,18:45:06.810,5461,57.515,29.36,1010.51,-0.413,-0.422,0.174,0.0,213.81,-1.88,-9.69,246,1,1,30.0
1782726306.810359,18:45:06.810,5462,57.525,29.36,1010.51,-0.413,-0.42,0.174,0.0,213.63,-0.06,-0.06,246,1,1,30.0
1782726306.810365,18:45:06.810,5463,57.536,29.36,1010.51,-0.413,-0.418,0.174,0.0,213.44,-0.06,-0.06,246,1,1,30.0
1782726306.810371,18:45:06.810,5464,57.544,29.36,1010.51,-0.413,-0.417,0.174,0.0,213.25,-1.81,-11.69,246,1,1,30.0
1782726306.810766,18:45:06.810,5465,57.554,29.36,1010.51,-0.413,-0.415,0.125,-0.78,213.25,-1.81,-12.06,246,1,1,30.0
1782726306.810775,18:45:06.810,5466,57.564,29.36,1010.51,-0.413,-0.413,0.125,0.0,213.06,-1.81,-12.31,246,1,1,30.0
1782726306.810782,18:45:06.810,5467,57.575,29.36,1010.51,-0.413,-0.412,0.125,0.0,213.06,-0.06,-0.06,246,1,1,30.0
1782726306.810787,18:45:06.810,5468,57.582,29.36,1010.51,-0.413,-0.411,0.125,0.0,213.06,-0.06,-0.06,246,1,1,30.0
1782726306.810792,18:45:06.810,5469,57.594,29.36,1010.51,-0.413,-0.41,0.125,0.0,212.88,-1.75,-13.0,246,1,1,30.0
1782726306.810982,18:45:06.810,5470,57.604,29.36,1010.51,-0.413,-0.409,0.094,0.0,212.88,-1.75,-13.31,246,0,1,30.0
1782726306.810989,18:45:06.810,5471,57.615,29.36,1010.51,-0.413,-0.408,0.094,0.0,212.69,-1.75,-13.69,246,0,1,30.0
1782726306.810995,18:45:06.810,5472,57.625,29.36,1010.51,-0.413,-0.407,0.094,0.0,212.69,-1.75,-14.13,246,0,1,30.0
1782726306.811001,18:45:06.811,5473,57.635,29.36,1010.51,-0.413,-0.406,0.094,0.0,212.69,-0.06,-0.06,246,0,1,30.0
1782726306.811007,18:45:06.811,5474,57.644,29.36,1010.51,-0.413,-0.406,0.091,-0.289,212.56,-1.69,-15.06,246,0,1,30.0
1782726306.919237,18:45:06.919,5475,57.654,29.36,1010.51,-0.413,-0.406,0.065,-0.387,212.56,-1.69,-15.56,246,0,1,30.0
1782726306.919265,18:45:06.919,5476,57.664,29.36,1010.51,-0.413,-0.406,0.065,0.0,212.56,-0.06,-0.06,246,0,1,30.0
1782726306.919273,18:45:06.919,5477,57.673,29.36,1010.51,-0.413,-0.405,0.065,0.0,212.56,-0.06,-0.06,246,0,1,30.0
1782726306.919279,18:45:06.919,5478,57.685,29.36,1010.51,-0.413,-0.404,0.065,0.0,212.56,-0.06,-0.06,246,0,1,30.0
1782726306.919285,18:45:06.919,5479,57.694,29.36,1010.51,-0.413,-0.404,0.065,0.0,212.56,-1.63,-16.44,246,0,1,30.0
1782726306.919290,18:45:06.919,5480,57.704,29.36,1010.51,-0.413,-0.405,0.049,0.0,212.56,-1.63,-16.44,246,0,1,30.0
1782726307.027752,18:45:07.027,5481,57.713,29.36,1010.51,-0.413,-0.405,0.049,0.0,212.56,-1.63,-16.44,246,0,1,30.0
1782726307.027787,18:45:07.027,5482,57.725,29.36,1010.51,-0.413,-0.404,0.049,0.0,212.56,-0.06,-0.06,246,0,1,30.0
1782726307.027795,18:45:07.027,5483,57.735,29.36,1010.51,-0.413,-0.404,0.049,0.0,212.44,-0.06,-0.06,246,0,1,30.0
1782726307.027801,18:45:07.027,5484,57.744,29.36,1010.51,-0.413,-0.403,0.049,0.0,212.44,-1.63,-17.63,246,0,1,30.0
1782726307.027806,18:45:07.027,5485,57.754,29.36,1010.51,-0.413,-0.405,0.037,0.0,212.44,-1.63,-18.19,246,0,1,30.0
1782726307.027812,18:45:07.027,5486,57.764,29.36,1010.51,-0.413,-0.405,0.037,0.0,212.31,-1.63,-18.75,246,0,1,30.0
1782726307.028144,18:45:07.028,5487,57.775,29.36,1010.51,-0.413,-0.404,0.037,0.0,212.31,-1.63,-19.38,246,0,1,30.0
1782726307.028152,18:45:07.028,5488,57.785,29.36,1010.51,-0.413,-0.404,0.037,0.0,212.13,-1.63,-19.94,246,0,1,30.0
1782726307.028158,18:45:07.028,5489,57.795,29.36,1010.51,-0.413,-0.403,0.034,-0.342,212.0,-1.63,-20.44,246,0,1,30.0
1782726307.028164,18:45:07.028,5490,57.804,29.36,1010.51,-0.413,-0.405,0.025,0.0,212.0,-1.63,-20.81,246,0,1,30.0
1782726307.028169,18:45:07.028,5491,57.814,29.36,1010.51,-0.413,-0.405,0.024,-0.085,211.75,-1.63,-21.19,246,0,1,30.0
1782726307.028175,18:45:07.028,5492,57.825,29.36,1010.51,-0.413,-0.405,0.024,0.0,211.5,-1.63,-21.5,246,0,1,30.0
1782726307.136397,18:45:07.136,5493,57.836,29.36,1010.51,-0.413,-0.404,0.025,0.068,211.31,-1.63,-21.81,246,0,1,30.0
1782726307.136428,18:45:07.136,5494,57.844,29.36,1010.51,-0.413,-0.404,0.021,-0.412,211.13,-1.63,-22.06,246,0,1,30.0
1782726307.136436,18:45:07.136,5495,57.855,29.36,1010.51,-0.413,-0.406,0.016,0.0,210.94,-1.63,-22.25,246,0,1,30.0
1782726307.136442,18:45:07.136,5496,57.863,29.36,1010.51,-0.413,-0.406,0.016,0.0,210.94,-1.63,-22.25,246,0,1,30.0
1782726307.136449,18:45:07.136,5497,57.873,29.36,1010.51,-0.413,-0.406,0.016,0.0,210.94,-1.63,-22.25,246,0,1,30.0
1782726307.136454,18:45:07.136,5498,57.885,29.36,1010.51,-0.413,-0.405,0.016,0.0,210.44,-1.63,-22.0,246,0,1,30.0
1782726307.136770,18:45:07.136,5499,57.894,29.36,1010.51,-0.413,-0.405,0.016,0.0,210.44,-1.63,-21.81,246,0,1,30.0
1782726307.136779,18:45:07.136,5500,57.904,29.36,1010.51,-0.413,-0.407,0.012,0.0,210.44,-1.63,-21.63,246,0,1,30.0
1782726307.136785,18:45:07.136,5501,57.915,29.36,1010.51,-0.413,-0.407,0.012,0.0,210.44,-1.63,-21.63,246,0,1,30.0
1782726307.136791,18:45:07.136,5502,57.926,29.36,1010.51,-0.413,-0.406,0.012,0.0,210.44,-1.63,-21.75,246,0,1,30.0
1782726307.136796,18:45:07.136,5503,57.935,29.36,1010.51,-0.413,-0.406,0.012,0.0,210.44,-1.63,-21.94,246,0,1,30.0
1782726307.245073,18:45:07.245,5504,57.944,29.36,1010.51,-0.413,-0.406,0.011,-0.13,210.44,-1.63,-22.13,246,0,1,30.0
1782726307.245111,18:45:07.245,5505,57.954,29.36,1010.51,-0.413,-0.408,0.007,-0.169,210.44,-1.63,-22.31,246,0,1,30.0
1782726307.245121,18:45:07.245,5506,57.964,29.36,1010.51,-0.413,-0.407,0.005,-0.167,210.31,-1.63,-22.5,246,0,1,30.0
1782726307.245171,18:45:07.245,5507,57.975,29.36,1010.51,-0.413,-0.407,0.005,0.0,210.31,-1.63,-22.63,246,0,1,30.0
1782726307.245180,18:45:07.245,5508,57.985,29.36,1010.51,-0.413,-0.407,0.005,0.0,210.31,-1.63,-22.75,246,0,1,30.0
1782726307.245186,18:45:07.245,5509,57.994,29.36,1010.51,-0.413,-0.407,0.005,0.0,210.31,-1.63,-22.75,246,0,1,30.0
1782726307.245567,18:45:07.245,5510,58.005,29.36,1010.51,-0.413,-0.408,0.004,0.0,210.31,-1.63,-22.94,246,0,1,30.0
1782726307.245577,18:45:07.245,5511,58.015,29.36,1010.51,-0.413,-0.408,0.004,0.0,210.31,-1.63,-23.06,246,0,1,30.0
1782726307.245583,18:45:07.245,5512,58.025,29.36,1010.51,-0.413,-0.408,0.004,0.0,210.31,-1.63,-23.25,246,0,1,30.0
1782726307.245589,18:45:07.245,5513,58.036,29.36,1010.51,-0.413,-0.408,0.004,0.0,210.31,-1.63,-23.44,246,0,1,30.0
1782726307.245595,18:45:07.245,5514,58.044,29.36,1010.51,-0.413,-0.408,0.003,-0.127,210.44,-1.63,-23.63,246,0,1,30.0
1782726307.245601,18:45:07.245,5515,58.054,29.36,1010.51,-0.413,-0.409,0.0,-0.275,210.44,-1.5,-23.75,246,0,1,30.0
1782726307.353967,18:45:07.353,5516,58.064,29.36,1010.51,-0.413,-0.409,0.0,0.0,210.44,-1.5,-23.88,246,0,1,30.0
1782726307.354000,18:45:07.353,5517,58.076,29.36,1010.51,-0.413,-0.409,-0.002,-0.138,210.56,-1.5,-23.88,246,0,1,30.0
1782726307.354009,18:45:07.354,5518,58.084,29.36,1010.51,-0.413,-0.409,-0.002,-0.018,210.56,-1.5,-23.88,246,0,1,30.0
1782726307.354015,18:45:07.354,5519,58.094,29.36,1010.51,-0.413,-0.409,-0.002,0.0,210.56,-1.5,-23.88,246,0,1,30.0
1782726307.354021,18:45:07.354,5520,58.103,29.36,1010.51,-0.413,-0.41,-0.001,0.0,210.56,-1.5,-23.88,246,0,1,30.0
1782726307.354027,18:45:07.354,5521,58.114,29.36,1010.51,-0.413,-0.41,-0.001,0.0,210.69,-1.5,-23.88,246,0,1,30.0
1782726307.354328,18:45:07.354,5522,58.123,29.36,1010.51,-0.413,-0.41,-0.001,0.0,210.69,-1.5,-23.88,246,0,1,30.0
1782726307.354336,18:45:07.354,5523,58.135,29.36,1010.51,-0.413,-0.41,-0.003,-0.11,210.69,-1.5,-23.88,246,0,1,30.0
1782726307.354342,18:45:07.354,5524,58.144,29.36,1010.51,-0.413,-0.41,-0.003,-0.027,210.69,-1.5,-24.0,246,0,1,30.0
1782726307.354348,18:45:07.354,5525,58.155,29.36,1010.51,-0.413,-0.411,-0.002,0.0,210.81,-1.5,-24.0,246,0,1,30.0
1782726307.354354,18:45:07.354,5526,58.164,29.36,1010.51,-0.413,-0.411,-0.002,0.0,210.81,-1.38,-24.13,246,0,1,30.0
1782726307.462305,18:45:07.462,5527,58.174,29.36,1010.51,-0.413,-0.411,-0.002,0.0,210.81,-1.38,-24.25,246,0,1,30.0
1782726307.462335,18:45:07.462,5528,58.184,29.36,1010.51,-0.413,-0.411,-0.002,0.0,210.81,-1.38,-24.38,246,0,1,30.0
1782726307.462343,18:45:07.462,5529,58.194,29.36,1010.51,-0.413,-0.411,-0.002,0.0,210.81,-1.38,-24.56,246,0,1,30.0
1782726307.462349,18:45:07.462,5530,58.204,29.36,1010.51,-0.413,-0.411,-0.002,0.0,210.81,-1.38,-24.81,246,0,1,30.0
1782726307.462355,18:45:07.462,5531,58.214,29.36,1010.51,-0.413,-0.411,-0.002,-0.052,210.81,-1.38,-25.06,246,0,1,30.0
1782726307.462360,18:45:07.462,5532,58.223,29.36,1010.51,-0.413,-0.411,-0.002,0.0,210.81,-1.38,-25.06,246,0,1,30.0
1782726307.462647,18:45:07.462,5533,58.234,29.36,1010.51,-0.413,-0.412,-0.003,-0.086,210.81,-1.25,-25.56,246,0,1,30.0
1782726307.462655,18:45:07.462,5534,58.244,29.36,1010.51,-0.413,-0.412,-0.003,0.0,210.81,-1.25,-25.81,246,0,1,30.0
1782726307.462661,18:45:07.462,5535,58.254,29.36,1010.51,-0.413,-0.412,-0.002,0.0,210.94,-1.25,-26.0,246,0,1,30.0
1782726307.462667,18:45:07.462,5536,58.264,29.36,1010.51,-0.413,-0.412,-0.002,0.0,210.94,-1.25,-26.31,246,0,1,30.0
1782726307.462672,18:45:07.462,5537,58.274,29.36,1010.51,-0.413,-0.412,-0.003,-0.036,210.94,-1.25,-26.56,246,0,1,30.0
1782726307.570632,18:45:07.570,5538,58.284,29.36,1010.51,-0.413,-0.412,-0.003,-0.045,210.94,-1.25,-26.88,246,0,1,30.0
1782726307.570663,18:45:07.570,5539,58.294,29.36,1010.51,-0.413,-0.412,-0.004,-0.063,211.06,-1.25,-27.13,246,0,1,30.0
1782726307.570670,18:45:07.570,5540,58.304,29.36,1010.51,-0.413,-0.412,-0.003,-0.046,211.06,-1.25,-27.38,246,0,1,30.0
1782726307.570677,18:45:07.570,5541,58.314,29.36,1010.51,-0.413,-0.412,-0.004,-0.046,211.06,-1.25,-27.69,246,0,1,30.0
1782726307.570682,18:45:07.570,5542,58.324,29.36,1010.51,-0.413,-0.412,-0.005,-0.098,211.06,-1.25,-27.88,246,0,1,30.0
1782726307.570688,18:45:07.570,5543,58.334,29.36,1010.51,-0.413,-0.412,-0.006,-0.155,211.06,-1.25,-28.13,246,0,1,30.0
1782726307.570974,18:45:07.570,5544,58.344,29.36,1010.51,-0.413,-0.413,-0.007,-0.107,211.06,-1.25,-28.31,246,0,1,30.0
1782726307.570981,18:45:07.570,5545,58.354,29.36,1010.5,-0.325,-0.395,0.437,-0.142,211.06,-1.25,-28.44,246,1,1,30.0
1782726307.570987,18:45:07.570,5546,58.365,29.36,1010.5,-0.325,-0.39,0.436,-0.137,211.06,-1.25,-28.56,246,1,1,30.0
1782726307.570993,18:45:07.570,5547,58.374,29.36,1010.5,-0.325,-0.386,0.436,-0.018,211.06,-1.25,-28.56,246,1,1,30.0
1782726307.570999,18:45:07.570,5548,58.384,29.36,1010.5,-0.325,-0.382,0.436,0.0,211.06,-1.25,-28.69,246,1,1,30.0
1782726307.678260,18:45:07.678,5549,58.394,29.36,1010.5,-0.325,-0.378,0.436,0.0,211.06,-1.25,-28.69,246,1,1,30.0
1782726307.678400,18:45:07.678,5550,58.404,29.36,1010.5,-0.325,-0.363,0.327,0.0,211.06,-1.25,-28.81,246,1,1,30.0
1782726307.678410,18:45:07.678,5551,58.414,29.36,1010.5,-0.325,-0.36,0.327,0.0,211.06,-1.25,-28.94,246,1,1,30.0
1782726307.678417,18:45:07.678,5552,58.424,29.36,1010.5,-0.325,-0.357,0.327,0.0,211.06,-1.25,-29.06,246,1,1,30.0
1782726307.678422,18:45:07.678,5553,58.434,29.36,1010.5,-0.325,-0.354,0.327,0.0,211.06,-1.25,-29.25,246,1,1,30.0
1782726307.678428,18:45:07.678,5554,58.444,29.36,1010.5,-0.325,-0.35,0.327,0.0,211.06,-1.25,-29.5,246,1,1,30.0
1782726307.678682,18:45:07.678,5555,58.454,29.36,1010.5,-0.325,-0.343,0.245,0.0,211.06,-1.25,-29.69,246,1,1,30.0
1782726307.678690,18:45:07.678,5556,58.463,29.36,1010.5,-0.325,-0.34,0.245,0.0,211.06,-1.25,-29.69,246,1,1,30.0
1782726307.678737,18:45:07.678,5557,58.474,29.36,1010.5,-0.325,-0.338,0.244,-0.088,211.06,-1.25,-30.13,246,1,1,30.0
1782726307.678746,18:45:07.678,5558,58.485,29.36,1010.5,-0.325,-0.335,0.243,-0.079,211.06,-1.25,-30.31,246,1,1,30.0
1782726307.678752,18:45:07.678,5559,58.494,29.36,1010.5,-0.325,-0.333,0.243,-0.045,211.06,-1.25,-30.5,246,1,1,30.0
1782726307.786905,18:45:07.786,5560,58.504,29.36,1010.5,-0.325,-0.329,0.182,-0.047,211.06,-1.25,-30.63,246,1,1,30.0
1782726307.786936,18:45:07.786,5561,58.514,29.36,1010.5,-0.325,-0.327,0.181,-0.033,211.06,-1.25,-30.75,246,1,1,30.0
1782726307.786944,18:45:07.786,5562,58.524,29.36,1010.5,-0.325,-0.326,0.181,-0.058,211.06,-1.25,-30.75,246,1,1,30.0
1782726307.786950,18:45:07.786,5563,58.533,29.36,1010.5,-0.325,-0.324,0.181,0.0,211.06,-1.25,-30.75,246,1,1,30.0
1782726307.786956,18:45:07.786,5564,58.544,29.36,1010.5,-0.325,-0.322,0.181,0.0,211.06,-1.25,-31.06,246,1,1,30.0
1782726307.786962,18:45:07.786,5565,58.554,29.36,1010.51,-0.413,-0.339,-0.308,0.0,211.06,-1.25,-31.06,246,0,1,30.0
1782726307.787290,18:45:07.787,5566,58.565,29.36,1010.51,-0.413,-0.342,-0.308,0.0,211.06,-1.25,-31.25,246,2,1,30.0
1782726307.787299,18:45:07.787,5567,58.574,29.36,1010.51,-0.413,-0.345,-0.308,0.0,211.06,-1.25,-31.44,246,2,1,30.0
1782726307.787305,18:45:07.787,5568,58.584,29.36,1010.51,-0.413,-0.348,-0.308,0.0,211.06,-1.25,-31.56,246,2,1,30.0
1782726307.787311,18:45:07.787,5569,58.595,29.36,1010.51,-0.413,-0.351,-0.308,0.0,211.06,-1.25,-31.75,246,2,1,30.0
1782726307.787317,18:45:07.787,5570,58.604,29.36,1010.51,-0.413,-0.366,-0.231,0.0,211.06,-1.25,-31.94,246,2,1,30.0
1782726307.895450,18:45:07.895,5571,58.614,29.36,1010.51,-0.413,-0.368,-0.232,-0.092,210.94,-1.25,-32.13,246,2,1,30.0
1782726307.895480,18:45:07.895,5572,58.624,29.36,1010.51,-0.413,-0.371,-0.233,-0.033,210.94,-1.25,-32.25,246,2,1,30.0
1782726307.895488,18:45:07.895,5573,58.635,29.36,1010.51,-0.413,-0.373,-0.233,0.0,210.94,-1.25,-32.38,246,2,1,30.0
1782726307.895495,18:45:07.895,5574,58.645,29.36,1010.51,-0.413,-0.375,-0.233,0.0,210.94,-1.25,-32.5,246,2,1,30.0
1782726307.895501,18:45:07.895,5575,58.655,29.36,1010.5,-0.325,-0.367,0.268,0.0,210.94,-1.25,-32.69,246,0,1,30.0
1782726307.895788,18:45:07.895,5576,58.665,29.36,1010.5,-0.325,-0.364,0.268,0.0,210.94,-1.25,-32.94,246,0,1,30.0
1782726307.895796,18:45:07.895,5577,58.675,29.36,1010.5,-0.325,-0.362,0.268,0.0,210.94,-1.25,-32.94,246,0,1,30.0
1782726307.895802,18:45:07.895,5578,58.685,29.36,1010.5,-0.325,-0.359,0.267,-0.095,210.81,-1.25,-33.44,246,0,1,30.0
1782726307.895807,18:45:07.895,5579,58.695,29.36,1010.5,-0.325,-0.356,0.266,-0.113,210.81,-1.25,-33.69,246,0,1,30.0
1782726307.895813,18:45:07.895,5580,58.705,29.36,1010.5,-0.325,-0.348,0.199,-0.094,210.81,-1.25,-33.69,246,0,1,30.0
1782726308.003949,18:45:08.003,5581,58.715,29.36,1010.5,-0.325,-0.346,0.199,0.0,210.81,-1.25,-33.88,246,0,1,30.0
1782726308.003980,18:45:08.003,5582,58.725,29.36,1010.5,-0.325,-0.344,0.199,0.0,210.81,-1.25,-34.06,246,0,1,30.0
1782726308.003988,18:45:08.003,5583,58.735,29.36,1010.5,-0.325,-0.342,0.199,0.0,210.81,-1.25,-34.19,246,0,1,30.0
1782726308.003994,18:45:08.003,5584,58.742,29.36,1010.5,-0.325,-0.34,0.199,0.0,210.81,-1.25,-34.19,246,0,1,30.0
1782726308.004000,18:45:08.003,5585,58.755,29.36,1010.5,-0.325,-0.335,0.149,0.0,210.81,-0.06,-0.06,246,0,1,30.0
1782726308.004302,18:45:08.004,5586,58.765,29.36,1010.5,-0.325,-0.334,0.149,0.0,210.81,-1.19,-34.88,246,0,1,30.0
1782726308.004312,18:45:08.004,5587,58.775,29.36,1010.5,-0.325,-0.332,0.149,0.0,210.81,-1.19,-35.13,246,0,1,30.0
1782726308.004318,18:45:08.004,5588,58.785,29.36,1010.5,-0.325,-0.331,0.149,0.0,210.81,-1.19,-35.38,246,0,1,30.0
1782726308.004324,18:45:08.004,5589,58.792,29.36,1010.5,-0.325,-0.33,0.149,0.0,210.81,-1.19,-35.38,246,0,1,30.0
1782726308.004330,18:45:08.004,5590,58.803,29.36,1010.5,-0.325,-0.327,0.112,0.0,210.81,-1.19,-35.38,246,0,1,30.0
1782726308.004335,18:45:08.004,5591,58.812,29.36,1010.5,-0.325,-0.326,0.112,0.0,210.81,-1.19,-35.38,246,0,1,30.0
1782726308.112283,18:45:08.112,5592,58.825,29.36,1010.5,-0.325,-0.325,0.112,0.0,210.63,-0.06,-0.06,246,0,1,30.0
1782726308.112314,18:45:08.112,5593,58.832,29.36,1010.5,-0.325,-0.324,0.112,0.0,210.63,-0.06,-0.06,246,0,1,30.0
1782726308.112321,18:45:08.112,5594,58.846,29.36,1010.5,-0.325,-0.323,0.082,-0.146,210.63,-1.19,-37.25,246,0,1,30.0
1782726308.112328,18:45:08.112,5595,58.854,29.36,1010.5,-0.325,-0.322,0.082,0.0,210.63,-1.19,-5.25,246,0,1,30.0
1782726308.112333,18:45:08.112,5596,58.865,29.36,1010.5,-0.325,-0.321,0.082,0.0,210.63,-1.19,-37.44,246,0,1,30.0
1782726308.112654,18:45:08.112,5597,58.872,29.36,1010.5,-0.325,-0.321,0.082,0.0,210.63,-1.19,-37.44,246,0,1,30.0
1782726308.112664,18:45:08.112,5598,58.885,29.36,1010.5,-0.325,-0.32,0.082,0.0,210.63,-0.06,-0.06,246,0,1,30.0
1782726308.112669,18:45:08.112,5599,58.892,29.36,1010.5,-0.325,-0.32,0.062,0.0,210.63,-0.06,-0.06,246,0,1,30.0
1782726308.112675,18:45:08.112,5600,58.905,29.36,1010.5,-0.325,-0.319,0.062,-0.02,210.63,-1.19,-37.75,246,0,1,30.0
1782726308.112681,18:45:08.112,5601,58.912,29.36,1010.5,-0.325,-0.319,0.062,0.0,210.63,-1.19,-37.75,246,0,1,30.0
1782726308.112687,18:45:08.112,5602,58.922,29.36,1010.5,-0.325,-0.318,0.062,0.0,210.63,-1.19,-37.75,246,0,1,30.0
1782726308.220607,18:45:08.220,5603,58.935,29.36,1010.5,-0.325,-0.318,0.062,0.0,210.63,-0.06,-0.06,246,0,1,30.0
1782726308.220637,18:45:08.220,5604,58.945,29.36,1010.51,-0.413,-0.336,-0.374,0.0,210.63,-0.06,-0.06,246,2,1,30.0
1782726308.220645,18:45:08.220,5605,58.955,29.36,1010.51,-0.413,-0.34,-0.374,0.0,210.63,-1.19,-37.88,246,2,1,30.0
1782726308.220651,18:45:08.220,5606,58.962,29.36,1010.51,-0.413,-0.343,-0.374,0.0,210.63,-1.19,-37.88,246,2,1,30.0
1782726308.220706,18:45:08.220,5607,58.975,29.36,1010.51,-0.413,-0.347,-0.374,0.0,210.63,-0.06,-0.06,246,2,1,30.0
1782726308.221029,18:45:08.221,5608,58.985,29.36,1010.51,-0.413,-0.351,-0.374,0.0,210.63,-0.06,-0.06,246,2,1,30.0
1782726308.221037,18:45:08.221,5609,58.995,29.36,1010.51,-0.413,-0.367,-0.281,0.0,210.63,-0.06,-0.06,246,2,1,30.0
1782726308.221043,18:45:08.221,5610,59.005,29.36,1010.51,-0.413,-0.369,-0.281,0.0,210.63,-1.19,-38.06,246,2,1,30.0
1782726308.221050,18:45:08.221,5611,59.015,29.36,1010.51,-0.413,-0.372,-0.281,0.0,210.63,-0.06,-0.06,246,2,1,30.0
1782726308.221055,18:45:08.221,5612,59.025,29.36,1010.51,-0.413,-0.375,-0.281,0.0,210.63,-0.06,-0.06,246,2,1,30.0
1782726308.221061,18:45:08.221,5613,59.035,29.36,1010.51,-0.413,-0.378,-0.281,0.0,210.63,-0.06,-0.06,246,2,1,30.0
1782726308.328956,18:45:08.328,5614,59.045,29.36,1010.51,-0.413,-0.387,-0.21,0.0,210.63,-0.06,-0.06,246,2,1,30.0
1782726308.328989,18:45:08.328,5615,59.055,29.36,1010.51,-0.413,-0.389,-0.21,0.0,210.63,-1.19,-38.69,246,2,1,30.0
1782726308.328997,18:45:08.328,5616,59.062,29.36,1010.51,-0.413,-0.391,-0.21,0.0,210.63,-1.19,-38.69,246,2,1,30.0
1782726308.329004,18:45:08.329,5617,59.075,29.36,1010.51,-0.413,-0.394,-0.21,0.0,210.63,-0.06,-0.06,246,2,1,30.0
1782726308.329009,18:45:08.329,5618,59.085,29.36,1010.51,-0.413,-0.396,-0.21,0.0,210.63,-0.06,-0.06,246,2,1,30.0
1782726308.329015,18:45:08.329,5619,59.095,29.36,1010.51,-0.413,-0.401,-0.158,0.0,210.63,-0.06,-0.06,246,2,1,30.0
1782726308.329327,18:45:08.329,5620,59.104,29.36,1010.51,-0.413,-0.402,-0.158,0.0,210.63,-1.19,-39.25,246,2,1,30.0
1782726308.329335,18:45:08.329,5621,59.115,29.36,1010.51,-0.413,-0.404,-0.158,0.0,210.63,-0.06,-0.06,246,2,1,30.0
1782726308.329341,18:45:08.329,5622,59.125,29.36,1010.51,-0.413,-0.406,-0.158,0.0,210.63,-0.06,-0.06,246,2,1,30.0
1782726308.329359,18:45:08.329,5623,59.132,29.36,1010.51,-0.413,-0.407,-0.158,0.0,210.63,-0.06,-0.06,246,2,1,30.0
1782726308.329364,18:45:08.329,5624,59.145,29.36,1010.51,-0.413,-0.41,-0.118,0.0,210.63,-0.06,-0.06,246,2,1,30.0
1782726308.329370,18:45:08.329,5625,59.154,29.36,1010.51,-0.413,-0.411,-0.118,0.0,210.63,-1.19,-39.81,246,2,1,30.0
1782726308.437285,18:45:08.437,5626,59.165,29.36,1010.51,-0.413,-0.412,-0.118,0.0,210.63,-0.06,-0.06,246,2,1,30.0
1782726308.437314,18:45:08.437,5627,59.175,29.36,1010.51,-0.413,-0.413,-0.118,0.0,210.63,-0.06,-0.06,246,2,1,30.0
1782726308.437322,18:45:08.437,5628,59.185,29.36,1010.51,-0.413,-0.414,-0.118,0.0,210.63,-0.06,-0.06,246,2,1,30.0
1782726308.437328,18:45:08.437,5629,59.195,29.36,1010.51,-0.413,-0.415,-0.089,0.0,210.63,-0.06,-0.06,246,0,1,30.0
1782726308.437334,18:45:08.437,5630,59.204,29.36,1010.51,-0.413,-0.416,-0.089,0.0,210.63,-1.19,-40.25,246,0,1,30.0
1782726308.437639,18:45:08.437,5631,59.215,29.36,1010.51,-0.413,-0.417,-0.089,0.0,210.63,-0.06,-0.06,246,0,1,30.0
1782726308.437648,18:45:08.437,5632,59.225,29.36,1010.51,-0.413,-0.418,-0.089,0.0,210.63,-0.06,-0.06,246,0,1,30.0
1782726308.437654,18:45:08.437,5633,59.235,29.36,1010.51,-0.413,-0.419,-0.089,0.0,210.63,-0.06,-0.06,246,0,1,30.0
1782726308.437660,18:45:08.437,5634,59.242,29.36,1010.51,-0.413,-0.418,-0.067,0.0,210.63,-0.06,-0.06,246,0,1,30.0
1782726308.437666,18:45:08.437,5635,59.255,29.36,1010.51,-0.413,-0.419,-0.068,-0.104,210.63,-1.19,-41.25,246,0,1,30.0
1782726308.545624,18:45:08.545,5636,59.265,29.36,1010.51,-0.413,-0.42,-0.068,-0.045,210.63,-1.19,-41.25,246,0,1,30.0
1782726308.545661,18:45:08.545,5637,59.275,29.36,1010.51,-0.413,-0.42,-0.068,-0.003,210.63,-1.19,-41.38,246,0,1,30.0
1782726308.545671,18:45:08.545,5638,59.285,29.36,1010.51,-0.413,-0.421,-0.068,0.0,210.63,-0.06,-0.06,246,0,1,30.0
1782726308.545677,18:45:08.545,5639,59.292,29.36,1010.51,-0.413,-0.42,-0.051,0.0,210.63,-0.06,-0.06,246,0,1,30.0
1782726308.545684,18:45:08.545,5640,59.303,29.36,1010.51,-0.413,-0.42,-0.051,0.0,210.63,-0.06,-0.06,246,0,1,30.0
1782726308.545689,18:45:08.545,5641,59.315,29.36,1010.51,-0.413,-0.421,-0.051,0.0,210.63,-0.06,-0.06,246,0,1,30.0
1782726308.546027,18:45:08.546,5642,59.322,29.36,1010.51,-0.413,-0.421,-0.051,0.0,210.63,-0.06,-0.06,246,0,1,30.0
1782726308.546040,18:45:08.546,5643,59.335,29.36,1010.51,-0.413,-0.422,-0.051,0.0,210.63,-0.06,-0.06,246,0,1,30.0
1782726308.546047,18:45:08.546,5644,59.345,29.36,1010.51,-0.413,-0.421,-0.038,0.0,210.63,-0.06,-0.06,246,0,1,30.0
1782726308.546053,18:45:08.546,5645,59.354,29.36,1010.51,-0.413,-0.421,-0.039,-0.099,210.63,-1.19,-42.31,246,0,1,30.0
1782726308.546059,18:45:08.546,5646,59.364,29.36,1010.51,-0.413,-0.422,-0.04,-0.112,210.75,-1.19,-42.31,246,0,1,30.0
1782726308.546065,18:45:08.546,5647,59.374,29.36,1010.51,-0.413,-0.422,-0.041,-0.01,210.75,-1.19,-42.13,246,0,1,30.0
1782726308.653947,18:45:08.653,5648,59.385,29.36,1010.51,-0.413,-0.422,-0.041,0.0,210.75,-0.06,-0.06,246,0,1,30.0
1782726308.653975,18:45:08.653,5649,59.396,29.36,1010.51,-0.413,-0.421,-0.03,0.0,210.75,-0.06,-0.06,246,0,1,30.0
1782726308.653982,18:45:08.653,5650,59.403,29.36,1010.51,-0.413,-0.421,-0.03,0.0,210.75,-0.06,-0.06,246,0,1,30.0
1782726308.653988,18:45:08.653,5651,59.414,29.36,1010.51,-0.413,-0.421,-0.03,0.0,210.75,-0.06,-0.06,246,0,1,30.0
1782726308.653994,18:45:08.653,5652,59.425,29.36,1010.51,-0.413,-0.422,-0.03,0.0,210.94,-1.19,-41.44,246,0,1,30.0
1782726308.762222,18:45:08.762,5653,59.432,29.36,1010.51,-0.413,-0.422,-0.03,0.0,210.94,-1.19,-41.44,246,0,1,30.0
1782726308.762408,18:45:08.762,5654,59.445,29.36,1010.52,-0.499,-0.438,-0.457,0.0,210.94,-0.06,-0.06,246,2,1,30.0
1782726308.762420,18:45:08.762,5655,59.454,29.36,1010.52,-0.499,-0.442,-0.457,0.0,211.06,-1.19,-41.0,246,2,1,30.0
1782726308.762428,18:45:08.762,5656,59.464,29.36,1010.52,-0.499,-0.447,-0.457,0.0,211.06,-1.19,-40.75,246,2,1,30.0
1782726308.762477,18:45:08.762,5657,59.474,29.36,1010.52,-0.499,-0.451,-0.457,-0.015,211.06,-1.19,-40.5,246,2,1,30.0
1782726308.762484,18:45:08.762,5658,59.485,29.36,1010.52,-0.499,-0.456,-0.457,0.0,211.19,-1.19,-40.19,246,2,1,30.0
1782726308.762781,18:45:08.762,5659,59.496,29.36,1010.52,-0.499,-0.469,-0.343,0.0,211.19,-0.06,-0.06,246,2,1,30.0
1782726308.762789,18:45:08.762,5660,59.504,29.36,1010.52,-0.499,-0.472,-0.343,0.0,211.19,-1.19,-39.63,246,2,1,30.0
1782726308.762796,18:45:08.762,5661,59.514,29.36,1010.52,-0.499,-0.475,-0.343,0.0,211.31,-1.19,-39.44,246,2,1,30.0
1782726308.762802,18:45:08.762,5662,59.525,29.36,1010.52,-0.499,-0.478,-0.343,0.0,211.31,-1.19,-39.31,246,2,1,30.0
1782726308.762808,18:45:08.762,5663,59.535,29.36,1010.52,-0.499,-0.482,-0.343,0.0,211.44,-0.06,-0.06,246,2,1,30.0
1782726308.762814,18:45:08.762,5664,59.542,29.36,1010.52,-0.499,-0.487,-0.257,0.0,211.44,-0.06,-0.06,246,2,1,30.0
1782726308.870590,18:45:08.870,5665,59.554,29.36,1010.52,-0.499,-0.491,-0.257,0.0,211.44,-1.13,-39.31,246,2,1,30.0
1782726308.870620,18:45:08.870,5666,59.564,29.36,1010.52,-0.499,-0.493,-0.258,-0.086,211.44,-1.13,-39.31,246,2,1,30.0
1782726308.870628,18:45:08.870,5667,59.575,29.36,1010.52,-0.499,-0.496,-0.258,0.0,211.44,-1.13,-39.31,246,2,1,30.0
1782726308.870635,18:45:08.870,5668,59.585,29.36,1010.52,-0.499,-0.498,-0.258,0.0,211.44,-0.06,-0.06,246,2,1,30.0
1782726308.870641,18:45:08.870,5669,59.595,29.37,1010.52,-0.499,-0.501,-0.193,0.0,211.44,-0.06,-0.06,246,2,1,30.0
1782726308.870948,18:45:08.870,5670,59.604,29.37,1010.52,-0.499,-0.503,-0.193,-0.006,211.44,-1.19,-39.13,246,2,1,30.0
1782726308.870956,18:45:08.870,5671,59.613,29.37,1010.52,-0.499,-0.504,-0.193,0.0,211.44,-1.19,-39.13,246,2,1,30.0
1782726308.870962,18:45:08.870,5672,59.624,29.37,1010.52,-0.499,-0.506,-0.193,0.0,211.44,-1.19,-38.88,246,2,1,30.0
1782726308.870968,18:45:08.870,5673,59.635,29.37,1010.52,-0.499,-0.508,-0.193,0.0,211.44,-0.06,-0.06,246,2,1,30.0
1782726308.870974,18:45:08.870,5674,59.645,29.37,1010.52,-0.499,-0.508,-0.145,0.0,211.56,-1.19,-6.81,246,2,1,30.0
1782726308.870979,18:45:08.870,5675,59.654,29.37,1010.52,-0.499,-0.51,-0.145,0.0,211.56,-1.19,-38.88,246,2,1,30.0
1782726308.978919,18:45:08.978,5676,59.664,29.37,1010.52,-0.499,-0.511,-0.145,0.0,211.56,-1.19,-38.88,246,2,1,30.0
1782726308.978946,18:45:08.978,5677,59.674,29.37,1010.52,-0.499,-0.512,-0.146,-0.111,211.56,-1.19,-39.06,246,2,1,30.0
1782726308.978953,18:45:08.978,5678,59.686,29.37,1010.52,-0.499,-0.514,-0.146,0.0,211.56,-0.06,-0.06,246,2,1,30.0
1782726308.978959,18:45:08.978,5679,59.695,29.37,1010.52,-0.499,-0.512,-0.11,0.0,211.56,-1.19,-39.06,246,2,1,30.0
1782726308.978964,18:45:08.978,5680,59.704,29.37,1010.52,-0.499,-0.513,-0.11,0.0,211.56,-1.19,-39.06,246,2,1,30.0
1782726308.979256,18:45:08.979,5681,59.714,29.37,1010.52,-0.499,-0.514,-0.11,-0.047,211.56,-1.19,-38.94,246,2,1,30.0
1782726308.979266,18:45:08.979,5682,59.724,29.37,1010.52,-0.499,-0.515,-0.11,-0.035,211.56,-1.19,-38.94,246,2,1,30.0
1782726308.979272,18:45:08.979,5683,59.734,29.37,1010.52,-0.499,-0.517,-0.11,0.0,211.56,-1.19,-38.94,246,2,1,30.0
1782726308.979278,18:45:08.979,5684,59.745,29.36,1010.52,-0.499,-0.514,-0.083,-0.009,211.56,-1.19,-38.56,246,0,1,30.0
1782726308.979284,18:45:08.979,5685,59.754,29.36,1010.52,-0.499,-0.515,-0.083,-0.046,211.56,-1.19,-38.38,246,0,1,30.0
1782726308.979467,18:45:08.979,5686,59.765,29.36,1010.52,-0.499,-0.516,-0.083,0.0,211.56,-1.19,-38.19,246,0,1,30.0
1782726308.979475,18:45:08.979,5687,59.775,29.36,1010.52,-0.499,-0.517,-0.083,0.0,211.56,-1.19,-37.94,246,0,1,30.0
1782726308.979481,18:45:08.979,5688,59.785,29.36,1010.52,-0.499,-0.517,-0.083,0.0,211.69,-1.19,-37.69,246,0,1,30.0
1782726308.979487,18:45:08.979,5689,59.795,29.36,1010.52,-0.499,-0.514,-0.062,0.0,211.69,-1.19,-37.44,246,0,1,30.0
1782726308.979493,18:45:08.979,5690,59.804,29.36,1010.52,-0.499,-0.515,-0.063,-0.07,211.69,-1.19,-37.13,246,0,1,30.0
1782726309.087263,18:45:09.087,5691,59.814,29.36,1010.52,-0.499,-0.516,-0.063,0.0,211.69,-1.19,-36.88,246,0,1,30.0
1782726309.087288,18:45:09.087,5692,59.824,29.36,1010.52,-0.499,-0.516,-0.063,0.0,211.69,-1.19,-36.5,246,0,1,30.0
1782726309.087294,18:45:09.087,5693,59.835,29.36,1010.52,-0.499,-0.517,-0.063,0.0,211.69,-1.19,-36.13,246,0,1,30.0
1782726309.087309,18:45:09.087,5694,59.845,29.36,1010.52,-0.499,-0.514,-0.047,0.0,211.81,-1.19,-35.75,246,0,1,30.0
1782726309.087315,18:45:09.087,5695,59.854,29.36,1010.52,-0.499,-0.514,-0.047,0.0,211.81,-1.19,-35.38,246,0,1,30.0
1782726309.087599,18:45:09.087,5696,59.864,29.36,1010.52,-0.499,-0.515,-0.047,0.0,211.81,-1.19,-35.0,246,0,1,30.0
1782726309.087606,18:45:09.087,5697,59.874,29.36,1010.52,-0.499,-0.515,-0.047,0.0,211.94,-1.19,-34.75,246,0,1,30.0
1782726309.087613,18:45:09.087,5698,59.885,29.36,1010.52,-0.499,-0.516,-0.047,0.0,211.94,-1.19,-34.44,246,0,1,30.0
1782726309.087619,18:45:09.087,5699,59.895,29.36,1010.52,-0.499,-0.513,-0.036,0.0,211.94,-1.19,-34.19,246,0,1,30.0
1782726309.087624,18:45:09.087,5700,59.904,29.36,1010.52,-0.499,-0.513,-0.036,0.0,211.94,-1.19,-34.0,246,0,1,30.0
1782726309.195607,18:45:09.195,5701,59.914,29.36,1010.52,-0.499,-0.514,-0.036,0.0,211.94,-1.19,-33.81,246,0,1,30.0
1782726309.195635,18:45:09.195,5702,59.924,29.36,1010.52,-0.499,-0.514,-0.036,0.0,211.94,-1.19,-33.69,246,0,1,30.0
1782726309.195643,18:45:09.195,5703,59.934,29.36,1010.52,-0.499,-0.514,-0.036,-0.05,211.94,-1.19,-33.56,246,0,1,30.0
1782726309.195649,18:45:09.195,5704,59.944,29.36,1010.52,-0.499,-0.512,-0.027,-0.02,211.94,-1.19,-33.56,246,0,1,30.0
1782726309.195655,18:45:09.195,5705,59.954,29.36,1010.52,-0.499,-0.512,-0.028,-0.07,211.94,-1.19,-33.31,246,0,1,30.0
1782726309.195661,18:45:09.195,5706,59.964,29.36,1010.52,-0.499,-0.512,-0.028,-0.048,211.94,-1.19,-33.19,246,0,1,30.0
1782726309.196002,18:45:09.196,5707,59.974,29.36,1010.52,-0.499,-0.512,-0.028,0.0,211.94,-1.19,-33.0,246,0,1,30.0
1782726309.196011,18:45:09.196,5708,59.984,29.36,1010.52,-0.499,-0.513,-0.029,-0.062,212.06,-1.19,-32.81,246,0,1,30.0
1782726309.196016,18:45:09.196,5709,59.994,29.37,1010.52,-0.499,-0.51,-0.022,-0.056,212.06,-1.19,-32.63,246,0,1,30.0
1782726309.196022,18:45:09.196,5710,60.004,29.37,1010.52,-0.499,-0.511,-0.023,-0.045,212.06,-1.19,-32.38,246,0,1,30.0
1782726309.196028,18:45:09.196,5711,60.014,29.37,1010.52,-0.499,-0.511,-0.023,0.0,212.06,-1.19,-32.19,246,0,1,30.0
1782726309.303390,18:45:09.303,5712,60.024,29.37,1010.52,-0.499,-0.511,-0.023,0.0,212.06,-1.19,-31.94,246,0,1,30.0
1782726309.303423,18:45:09.303,5713,60.034,29.37,1010.52,-0.499,-0.511,-0.023,0.0,212.06,-1.19,-31.81,246,0,1,30.0
1782726309.303431,18:45:09.303,5714,60.044,29.36,1010.52,-0.499,-0.509,-0.017,0.0,212.06,-1.19,-31.63,246,0,1,30.0
1782726309.303437,18:45:09.303,5715,60.054,29.36,1010.52,-0.499,-0.509,-0.018,-0.069,212.06,-1.19,-31.44,246,0,1,30.0
1782726309.303443,18:45:09.303,5716,60.064,29.36,1010.52,-0.499,-0.509,-0.018,-0.077,212.06,-1.19,-31.25,246,0,1,30.0
1782726309.303450,18:45:09.303,5717,60.074,29.36,1010.52,-0.499,-0.51,-0.019,-0.053,212.06,-1.19,-31.06,246,0,1,30.0
1782726309.303753,18:45:09.303,5718,60.084,29.36,1010.52,-0.499,-0.51,-0.019,-0.039,212.06,-1.19,-30.75,246,0,1,30.0
1782726309.303761,18:45:09.303,5719,60.094,29.36,1010.52,-0.499,-0.508,-0.014,0.0,212.06,-1.19,-30.5,246,0,1,30.0
1782726309.303768,18:45:09.303,5720,60.104,29.36,1010.52,-0.499,-0.508,-0.014,0.0,212.06,-1.19,-30.5,246,0,1,30.0
1782726309.303774,18:45:09.303,5721,60.113,29.36,1010.52,-0.499,-0.508,-0.014,0.0,212.06,-1.19,-30.5,246,0,1,30.0
1782726309.303780,18:45:09.303,5722,60.124,29.36,1010.52,-0.499,-0.508,-0.014,0.0,212.06,-1.19,-29.75,246,0,1,30.0
1782726309.412000,18:45:09.411,5723,60.134,29.36,1010.52,-0.499,-0.508,-0.015,-0.098,212.06,-1.19,-29.56,246,0,1,30.0
1782726309.412032,18:45:09.412,5724,60.144,29.36,1010.52,-0.499,-0.507,-0.012,-0.065,212.06,-1.19,-29.31,246,0,1,30.0
1782726309.412039,18:45:09.412,5725,60.154,29.36,1010.52,-0.499,-0.507,-0.012,0.0,212.19,-1.19,-29.0,246,0,1,30.0
1782726309.412045,18:45:09.412,5726,60.164,29.36,1010.52,-0.499,-0.507,-0.012,0.0,212.19,-1.19,-28.69,246,0,1,30.0
1782726309.412051,18:45:09.412,5727,60.173,29.36,1010.52,-0.499,-0.507,-0.012,0.0,212.19,-1.19,-28.69,246,0,1,30.0
1782726309.412057,18:45:09.412,5728,60.184,29.36,1010.52,-0.499,-0.507,-0.012,0.045,212.31,-1.19,-28.19,246,0,1,30.0
1782726309.520851,18:45:09.520,5729,60.194,29.36,1010.52,-0.499,-0.506,-0.01,-0.242,212.31,-1.19,-28.19,246,0,1,30.0
1782726309.520970,18:45:09.520,5730,60.204,29.36,1010.52,-0.499,-0.506,-0.014,-0.338,212.31,-1.19,-28.06,246,0,1,30.0
1782726309.521008,18:45:09.521,5731,60.214,29.36,1010.52,-0.499,-0.506,-0.016,-0.179,212.31,-1.19,-27.88,246,0,1,30.0
1782726309.521030,18:45:09.521,5732,60.225,29.36,1010.52,-0.499,-0.506,-0.017,-0.12,212.31,-1.19,-27.63,246,0,1,30.0
1782726309.521047,18:45:09.521,5733,60.234,29.36,1010.52,-0.499,-0.506,-0.017,0.0,212.31,-1.19,-27.31,246,0,1,30.0
1782726309.521064,18:45:09.521,5734,60.244,29.36,1010.52,-0.499,-0.505,-0.013,0.0,212.31,-1.19,-27.06,246,0,1,30.0
1782726309.522043,18:45:09.522,5735,60.254,29.36,1010.52,-0.499,-0.505,-0.014,-0.138,212.31,-1.19,-26.88,246,0,1,30.0
1782726309.522069,18:45:09.522,5736,60.264,29.36,1010.52,-0.499,-0.505,-0.016,-0.161,212.31,-1.19,-26.56,246,0,1,30.0
1782726309.522084,18:45:09.522,5737,60.274,29.36,1010.52,-0.499,-0.505,-0.016,0.0,212.44,-1.19,-26.31,246,0,1,30.0
1782726309.522099,18:45:09.522,5738,60.284,29.36,1010.52,-0.499,-0.506,-0.016,-0.045,212.44,-1.19,-26.0,246,0,1,30.0
1782726309.522114,18:45:09.522,5739,60.293,29.36,1010.52,-0.499,-0.504,-0.012,0.0,212.44,-1.19,-26.0,246,0,1,30.0
1782726309.522128,18:45:09.522,5740,60.304,29.36,1010.52,-0.499,-0.505,-0.014,-0.132,212.44,-1.19,-25.31,246,0,1,30.0
1782726309.522855,18:45:09.522,5741,60.314,29.36,1010.52,-0.499,-0.505,-0.015,-0.159,212.44,-1.19,-25.0,246,0,1,30.0
1782726309.522884,18:45:09.522,5742,60.324,29.36,1010.52,-0.499,-0.505,-0.016,-0.112,212.56,-1.19,-24.56,246,0,1,30.0
1782726309.522903,18:45:09.522,5743,60.334,29.36,1010.52,-0.499,-0.505,-0.018,-0.126,212.56,-1.19,-24.19,246,0,1,30.0
1782726309.522920,18:45:09.522,5744,60.345,29.36,1010.52,-0.499,-0.504,-0.014,-0.078,212.56,-1.19,-23.75,246,0,1,30.0
1782726309.522936,18:45:09.522,5745,60.354,29.36,1010.52,-0.499,-0.504,-0.015,-0.125,212.56,-1.19,-23.25,246,0,1,30.0
1782726309.633670,18:45:09.633,5746,60.364,29.36,1010.52,-0.499,-0.504,-0.016,-0.141,212.69,-1.19,-22.81,246,0,1,30.0
1782726309.633695,18:45:09.633,5747,60.373,29.36,1010.52,-0.499,-0.505,-0.016,0.0,212.69,-1.19,-22.81,246,0,1,30.0
1782726309.633703,18:45:09.633,5748,60.383,29.36,1010.52,-0.499,-0.505,-0.016,0.0,212.69,-1.19,-22.81,246,0,1,30.0
1782726309.633709,18:45:09.633,5749,60.394,29.36,1010.52,-0.499,-0.504,-0.013,-0.051,212.94,-1.19,-21.13,246,0,1,30.0
1782726309.633715,18:45:09.633,5750,60.404,29.36,1010.52,-0.499,-0.504,-0.013,-0.06,212.94,-1.19,-20.56,246,0,1,30.0
1782726309.633720,18:45:09.633,5751,60.414,29.36,1010.52,-0.499,-0.504,-0.013,0.0,213.06,-1.19,-20.0,246,0,1,30.0
1782726309.633997,18:45:09.633,5752,60.424,29.36,1010.52,-0.499,-0.504,-0.013,0.0,213.19,-1.19,-19.44,246,0,1,30.0
1782726309.634004,18:45:09.634,5753,60.434,29.36,1010.52,-0.499,-0.504,-0.013,0.0,213.19,-1.19,-18.94,246,0,1,30.0
1782726309.634010,18:45:09.634,5754,60.444,29.36,1010.52,-0.499,-0.503,-0.01,0.0,213.31,-1.19,-18.5,246,0,1,30.0
1782726309.634016,18:45:09.634,5755,60.454,29.36,1010.52,-0.499,-0.504,-0.01,0.0,213.44,-1.19,-18.06,246,0,1,30.0
1782726309.634022,18:45:09.634,5756,60.464,29.36,1010.52,-0.499,-0.504,-0.014,-0.406,213.44,-1.19,-18.06,246,0,1,30.0
1782726309.742157,18:45:09.742,5757,60.472,29.36,1010.52,-0.499,-0.504,-0.014,0.0,213.44,-1.19,-18.06,246,0,1,30.0
1782726309.742187,18:45:09.742,5758,60.484,29.36,1010.52,-0.499,-0.504,-0.02,-0.506,213.69,-1.19,-16.5,246,0,1,30.0
1782726309.742196,18:45:09.742,5759,60.493,29.37,1010.53,-0.588,-0.521,-0.473,0.0,213.69,-1.19,-16.5,246,2,1,30.0
1782726309.742203,18:45:09.742,5760,60.505,29.37,1010.53,-0.588,-0.527,-0.473,0.0,214.0,-1.19,-14.94,246,2,1,30.0
1782726309.742209,18:45:09.742,5761,60.514,29.37,1010.53,-0.588,-0.531,-0.473,0.0,214.0,-1.19,-14.94,246,2,1,30.0
1782726309.742538,18:45:09.742,5762,60.525,29.37,1010.53,-0.588,-0.536,-0.473,0.0,214.13,-1.19,-14.06,246,2,1,30.0
1782726309.742548,18:45:09.742,5763,60.535,29.37,1010.53,-0.588,-0.541,-0.473,0.0,214.56,-1.19,-12.38,246,2,1,30.0
1782726309.742554,18:45:09.742,5764,60.544,29.37,1010.52,-0.499,-0.536,0.083,0.0,214.56,-1.19,-12.38,246,0,1,30.0
1782726309.742560,18:45:09.742,5765,60.555,29.37,1010.52,-0.499,-0.535,0.083,0.0,214.94,-1.19,-11.06,246,0,1,30.0
1782726309.742566,18:45:09.742,5766,60.565,29.37,1010.52,-0.499,-0.534,0.083,0.0,214.94,-1.19,-11.06,246,0,1,30.0
1782726309.851007,18:45:09.851,5767,60.579,29.37,1010.52,-0.499,-0.533,0.083,0.0,215.19,-1.19,-10.13,246,0,1,30.0
1782726309.851081,18:45:09.851,5768,60.585,29.37,1010.52,-0.499,-0.532,0.082,-0.044,215.19,-1.19,-10.13,246,0,1,30.0
1782726309.851089,18:45:09.851,5769,60.595,29.37,1010.53,-0.588,-0.543,-0.372,0.0,215.31,-1.19,-9.75,246,2,1,30.0
1782726309.851095,18:45:09.851,5770,60.605,29.37,1010.53,-0.588,-0.547,-0.372,0.0,215.31,-1.19,-9.44,246,2,1,30.0
1782726309.851101,18:45:09.851,5771,60.615,29.37,1010.53,-0.588,-0.55,-0.372,0.0,215.44,-0.06,-0.06,246,2,1,30.0
1782726309.851331,18:45:09.851,5772,60.625,29.37,1010.53,-0.588,-0.554,-0.372,0.0,215.44,-0.06,-0.06,246,2,1,30.0
1782726309.851338,18:45:09.851,5773,60.635,29.37,1010.53,-0.588,-0.558,-0.373,-0.107,215.56,-1.25,-8.38,246,2,1,30.0
1782726309.851344,18:45:09.851,5774,60.645,29.37,1010.53,-0.588,-0.567,-0.282,-0.201,215.69,-1.25,-8.0,246,2,1,30.0
1782726309.851350,18:45:09.851,5775,60.655,29.37,1010.53,-0.588,-0.57,-0.282,0.0,215.69,-0.06,-0.06,246,2,1,30.0
1782726309.851355,18:45:09.851,5776,60.664,29.37,1010.53,-0.588,-0.572,-0.282,0.0,215.81,-1.25,-7.19,246,2,1,30.0
1782726309.851361,18:45:09.851,5777,60.675,29.37,1010.53,-0.588,-0.575,-0.282,0.0,215.81,-1.25,-6.81,246,2,1,30.0
1782726309.959477,18:45:09.959,5778,60.685,29.37,1010.53,-0.588,-0.578,-0.282,0.0,216.0,-1.25,-6.38,246,2,1,30.0
1782726309.959507,18:45:09.959,5779,60.695,29.37,1010.53,-0.588,-0.582,-0.211,0.0,216.0,-0.06,-0.06,246,2,1,30.0
1782726309.959516,18:45:09.959,5780,60.705,29.37,1010.53,-0.588,-0.585,-0.211,0.0,216.19,-0.06,-0.06,246,2,1,30.0
1782726309.959522,18:45:09.959,5781,60.713,29.37,1010.53,-0.588,-0.586,-0.211,0.0,216.19,-0.06,-0.06,246,2,1,30.0
1782726309.959528,18:45:09.959,5782,60.725,29.37,1010.53,-0.588,-0.589,-0.211,-0.004,216.38,-1.31,-4.56,246,2,1,30.0
1782726309.959534,18:45:09.959,5783,60.735,29.37,1010.53,-0.588,-0.591,-0.211,0.0,216.5,-0.06,-0.06,246,2,1,30.0
1782726309.959837,18:45:09.959,5784,60.745,29.37,1010.52,-0.499,-0.574,0.284,0.0,216.5,-0.06,-0.06,246,0,1,30.0
1782726309.959846,18:45:09.959,5785,60.755,29.37,1010.52,-0.499,-0.571,0.284,0.0,216.63,-0.06,-0.06,246,0,1,30.0
1782726309.959852,18:45:09.959,5786,60.765,29.37,1010.52,-0.499,-0.569,0.284,0.0,216.63,-1.38,-3.19,246,0,1,30.0
1782726309.959858,18:45:09.959,5787,60.775,29.37,1010.52,-0.499,-0.566,0.281,-0.274,216.63,-1.38,-3.06,246,0,1,30.0
1782726309.959864,18:45:09.959,5788,60.785,29.37,1010.52,-0.499,-0.563,0.281,0.0,216.63,-0.06,-0.06,246,0,1,30.0
1782726309.959869,18:45:09.959,5789,60.792,29.37,1010.52,-0.499,-0.549,0.211,0.0,216.63,-0.06,-0.06,246,0,1,30.0
1782726310.068070,18:45:10.068,5790,60.805,29.37,1010.52,-0.499,-0.546,0.211,0.0,216.63,-0.06,-0.06,246,0,1,30.0
1782726310.068101,18:45:10.068,5791,60.815,29.37,1010.52,-0.499,-0.544,0.211,0.0,216.63,-1.44,-2.38,246,0,1,30.0
1782726310.068109,18:45:10.068,5792,60.822,29.37,1010.52,-0.499,-0.542,0.211,0.0,216.63,-1.44,-2.38,246,0,1,30.0
1782726310.068115,18:45:10.068,5793,60.835,29.37,1010.52,-0.499,-0.54,0.211,0.0,216.5,-0.06,-0.06,246,0,1,30.0
1782726310.068121,18:45:10.068,5794,60.845,29.37,1010.52,-0.499,-0.53,0.158,0.0,216.5,-0.06,-0.06,246,0,1,30.0
1782726310.176483,18:45:10.176,5795,60.855,29.37,1010.52,-0.499,-0.528,0.158,0.0,216.5,-0.06,-0.06,246,0,1,30.0
1782726310.176514,18:45:10.176,5796,60.864,29.37,1010.52,-0.499,-0.527,0.158,0.0,216.5,-1.44,-2.38,246,0,1,30.0
1782726310.176523,18:45:10.176,5797,60.875,29.37,1010.52,-0.499,-0.525,0.158,0.0,216.5,-0.06,-0.06,246,0,1,30.0
1782726310.176531,18:45:10.176,5798,60.885,29.37,1010.52,-0.499,-0.524,0.158,0.0,216.5,-0.06,-0.06,246,0,1,30.0
1782726310.176537,18:45:10.176,5799,60.895,29.36,1010.52,-0.499,-0.517,0.119,0.0,216.5,-0.06,-0.06,246,0,1,30.0
1782726310.176542,18:45:10.176,5800,60.905,29.36,1010.52,-0.499,-0.516,0.119,0.0,216.5,-0.06,-0.06,246,0,1,30.0
1782726310.176869,18:45:10.176,5801,60.913,29.36,1010.52,-0.499,-0.515,0.119,0.0,216.5,-0.06,-0.06,246,0,1,30.0
1782726310.176878,18:45:10.176,5802,60.925,29.36,1010.52,-0.499,-0.514,0.119,0.0,216.38,-0.06,-0.06,246,0,1,30.0
1782726310.176884,18:45:10.176,5803,60.935,29.36,1010.52,-0.499,-0.513,0.119,0.0,216.38,-0.06,-0.06,246,0,1,30.0
1782726310.176889,18:45:10.176,5804,60.942,29.36,1010.52,-0.499,-0.509,0.089,0.0,216.38,-0.06,-0.06,246,0,1,30.0
1782726310.176895,18:45:10.176,5805,60.952,29.36,1010.52,-0.499,-0.508,0.089,0.0,216.38,-0.06,-0.06,246,0,1,30.0
1782726310.176900,18:45:10.176,5806,60.963,29.36,1010.52,-0.499,-0.508,0.089,0.0,216.38,-0.06,-0.06,246,0,1,30.0
1782726310.285205,18:45:10.285,5807,60.975,29.36,1010.52,-0.499,-0.506,0.089,0.0,216.38,-0.06,-0.06,246,0,1,30.0
1782726310.285237,18:45:10.285,5808,60.985,29.36,1010.52,-0.499,-0.506,0.089,0.0,216.38,-0.06,-0.06,246,0,1,30.0
1782726310.285244,18:45:10.285,5809,60.995,29.36,1010.52,-0.499,-0.504,0.067,0.0,216.38,-0.06,-0.06,246,0,1,30.0
1782726310.285250,18:45:10.285,5810,61.005,29.36,1010.52,-0.499,-0.503,0.067,0.0,216.38,-0.06,-0.06,246,0,1,30.0
1782726310.285257,18:45:10.285,5811,61.015,29.36,1010.52,-0.499,-0.502,0.066,-0.12,216.38,-1.44,-2.38,246,0,1,30.0
1782726310.285637,18:45:10.285,5812,61.025,29.36,1010.52,-0.499,-0.502,0.066,0.0,216.38,-0.06,-0.06,246,0,1,30.0
1782726310.285650,18:45:10.285,5813,61.032,29.36,1010.52,-0.499,-0.501,0.066,0.0,216.38,-0.06,-0.06,246,0,1,30.0
1782726310.285657,18:45:10.285,5814,61.042,29.36,1010.52,-0.499,-0.5,0.049,0.0,216.38,-0.06,-0.06,246,0,1,30.0
1782726310.285664,18:45:10.285,5815,61.052,29.36,1010.52,-0.499,-0.5,0.049,0.0,216.38,-0.06,-0.06,246,0,1,30.0
1782726310.285670,18:45:10.285,5816,61.063,29.36,1010.52,-0.499,-0.499,0.049,0.0,216.38,-0.06,-0.06,246,0,1,30.0
1782726310.285675,18:45:10.285,5817,61.072,29.36,1010.52,-0.499,-0.499,0.049,0.0,216.38,-0.06,-0.06,246,0,1,30.0
1782726310.285866,18:45:10.285,5818,61.085,29.36,1010.52,-0.499,-0.498,0.049,0.0,216.38,-0.06,-0.06,246,0,1,30.0
1782726310.285874,18:45:10.285,5819,61.095,29.36,1010.52,-0.499,-0.498,0.037,0.0,216.38,-0.06,-0.06,246,0,1,30.0
1782726310.285880,18:45:10.285,5820,61.105,29.36,1010.52,-0.499,-0.498,0.037,0.0,216.5,-0.06,-0.06,246,0,1,30.0
1782726310.285886,18:45:10.285,5821,61.113,29.36,1010.52,-0.499,-0.497,0.037,0.0,216.5,-0.06,-0.06,246,0,1,30.0
1782726310.285892,18:45:10.285,5822,61.125,29.36,1010.52,-0.499,-0.497,0.037,0.0,216.5,-0.06,-0.06,246,0,1,30.0
1782726310.393611,18:45:10.393,5823,61.135,29.36,1010.52,-0.499,-0.497,0.037,0.0,216.5,-0.06,-0.06,246,0,1,30.0
