host_unix,host_time,seq,up_ms,temp_c,press_hpa,alt_baro_m,alt_fused_m,vel_m_s,az_m_s2,heading,roll,pitch,calib,vstate,elev,servo_deg
1782729572.869685,19:39:32.869,14188,144.865,29.68,1010.86,-0.203,-0.128,-0.404,0.0,228.06,-0.75,-2.5,243,2,1,30.0
1782729572.869821,19:39:32.869,14189,144.872,29.68,1010.86,-0.203,-0.131,-0.404,0.0,228.06,-0.75,-2.5,243,2,1,30.0
1782729572.869842,19:39:32.869,14190,144.882,29.68,1010.86,-0.203,-0.135,-0.404,0.0,228.06,-0.75,-2.5,243,2,1,30.0
1782729572.869855,19:39:32.869,14191,144.892,29.68,1010.86,-0.203,-0.139,-0.404,0.0,228.06,-0.75,-2.5,243,2,1,30.0
1782729572.869866,19:39:32.869,14192,144.902,29.68,1010.86,-0.203,-0.143,-0.404,0.0,228.06,-0.75,-2.5,243,2,1,30.0
1782729572.869877,19:39:32.869,14193,144.912,29.68,1010.86,-0.203,-0.158,-0.303,0.0,228.06,-0.75,-2.5,243,2,1,30.0
1782729572.870668,19:39:32.870,14194,144.922,29.68,1010.86,-0.203,-0.161,-0.303,0.0,228.31,-0.75,-2.5,243,2,1,30.0
1782729572.870686,19:39:32.870,14195,144.935,29.68,1010.86,-0.203,-0.165,-0.303,0.0,228.31,-0.75,-2.5,243,2,1,30.0
1782729572.870697,19:39:32.870,14196,144.942,29.68,1010.86,-0.203,-0.167,-0.303,0.0,228.31,-0.75,-2.5,243,2,1,30.0
1782729572.870710,19:39:32.870,14197,144.952,29.68,1010.86,-0.203,-0.17,-0.303,0.0,228.31,-0.75,-2.5,243,2,1,30.0
1782729572.870721,19:39:32.870,14198,144.962,29.68,1010.86,-0.203,-0.179,-0.227,0.0,228.31,-0.75,-2.5,243,2,1,30.0
1782729572.870732,19:39:32.870,14199,144.972,29.68,1010.86,-0.203,-0.181,-0.227,0.0,228.56,-0.75,-2.69,243,2,1,30.0
1782729572.987360,19:39:32.987,14200,144.982,29.68,1010.86,-0.203,-0.184,-0.227,0.0,228.56,-0.75,-2.69,243,2,1,30.0
1782729572.987504,19:39:32.987,14201,144.992,29.68,1010.86,-0.203,-0.186,-0.227,0.0,228.81,-0.75,-2.69,243,2,1,30.0
1782729572.987524,19:39:32.987,14202,145.002,29.68,1010.86,-0.203,-0.191,-0.171,0.0,228.94,-0.75,-2.69,243,2,1,30.0
1782729572.987537,19:39:32.987,14203,145.012,29.68,1010.86,-0.203,-0.193,-0.171,0.0,228.94,-0.75,-2.69,243,2,1,30.0
1782729572.987549,19:39:32.987,14204,145.022,29.68,1010.86,-0.203,-0.195,-0.171,0.0,228.94,-0.75,-2.69,243,2,1,30.0
1782729572.987560,19:39:32.987,14205,145.032,29.68,1010.86,-0.203,-0.196,-0.171,0.0,229.06,-0.75,-2.69,243,2,1,30.0
1782729572.987985,19:39:32.987,14206,145.042,29.68,1010.86,-0.203,-0.198,-0.171,0.0,229.06,-0.75,-2.69,243,2,1,30.0
1782729572.988000,19:39:32.987,14207,145.052,29.68,1010.86,-0.203,-0.2,-0.128,0.0,229.06,-0.75,-2.69,243,2,1,30.0
1782729572.988011,19:39:32.988,14208,145.062,29.68,1010.86,-0.203,-0.202,-0.128,0.0,229.19,-0.75,-2.69,243,2,1,30.0
1782729572.988022,19:39:32.988,14209,145.072,29.68,1010.86,-0.203,-0.203,-0.13,-0.223,229.19,-0.75,-2.69,243,2,1,30.0
1782729572.988033,19:39:32.988,14210,145.082,29.68,1010.86,-0.203,-0.204,-0.13,0.0,229.19,-0.75,-2.69,243,2,1,30.0
1782729572.988043,19:39:32.988,14211,145.092,29.68,1010.86,-0.203,-0.205,-0.132,-0.222,229.19,-0.75,-2.69,243,2,1,30.0
1782729573.102902,19:39:33.102,14212,145.102,29.68,1010.86,-0.203,-0.207,-0.132,0.0,229.19,-0.75,-2.69,243,2,1,30.0
1782729573.102961,19:39:33.102,14213,145.112,29.68,1010.85,-0.117,-0.19,0.26,0.0,229.19,-0.75,-2.69,243,0,1,30.0
1782729573.102977,19:39:33.102,14214,145.122,29.68,1010.85,-0.117,-0.187,0.26,0.0,229.19,-0.75,-2.69,243,0,1,30.0
1782729573.102990,19:39:33.102,14215,145.132,29.68,1010.85,-0.117,-0.185,0.26,0.0,229.19,-0.75,-2.69,243,0,1,30.0
1782729573.103001,19:39:33.103,14216,145.142,29.68,1010.85,-0.117,-0.182,0.26,0.0,229.19,-0.75,-2.69,243,0,1,30.0
1782729573.103579,19:39:33.103,14217,145.152,29.68,1010.85,-0.117,-0.167,0.195,0.0,229.19,-0.75,-2.69,243,0,1,30.0
1782729573.103596,19:39:33.103,14218,145.162,29.68,1010.85,-0.117,-0.165,0.195,0.0,229.19,-0.75,-2.69,243,0,1,30.0
1782729573.103607,19:39:33.103,14219,145.172,29.68,1010.85,-0.117,-0.163,0.195,0.0,229.19,-0.75,-2.69,243,0,1,30.0
1782729573.103618,19:39:33.103,14220,145.182,29.68,1010.85,-0.117,-0.161,0.195,0.0,229.19,-0.75,-2.69,243,0,1,30.0
1782729573.103628,19:39:33.103,14221,145.192,29.68,1010.85,-0.117,-0.159,0.195,0.0,229.19,-0.75,-2.69,243,0,1,30.0
1782729573.103639,19:39:33.103,14222,145.202,29.68,1010.85,-0.117,-0.149,0.146,0.0,229.19,-0.75,-2.69,243,0,1,30.0
1782729573.232830,19:39:33.232,14223,145.212,29.68,1010.85,-0.117,-0.148,0.146,0.0,229.19,-0.75,-2.69,243,0,1,30.0
1782729573.232899,19:39:33.232,14224,145.222,29.68,1010.85,-0.117,-0.146,0.146,0.0,229.19,-0.75,-2.69,243,0,1,30.0
1782729573.232914,19:39:33.232,14225,145.232,29.68,1010.85,-0.117,-0.145,0.146,0.0,229.19,-0.75,-2.69,243,0,1,30.0
1782729573.232926,19:39:33.232,14226,145.242,29.68,1010.85,-0.117,-0.143,0.146,0.0,229.19,-0.75,-2.69,243,0,1,30.0
1782729573.232937,19:39:33.232,14227,145.252,29.68,1010.85,-0.117,-0.137,0.11,0.0,229.19,-0.75,-2.69,243,0,1,30.0
1782729573.233483,19:39:33.233,14228,145.262,29.68,1010.85,-0.117,-0.136,0.11,0.0,229.19,-0.75,-2.69,243,0,1,30.0
1782729573.233498,19:39:33.233,14229,145.272,29.68,1010.85,-0.117,-0.135,0.11,0.0,229.19,-0.75,-2.69,243,0,1,30.0
1782729573.233509,19:39:33.233,14230,145.282,29.68,1010.85,-0.117,-0.133,0.11,0.0,229.19,-0.75,-2.69,243,0,1,30.0
1782729573.233520,19:39:33.233,14231,145.292,29.68,1010.85,-0.117,-0.132,0.11,0.0,229.19,-0.75,-2.69,243,0,1,30.0
1782729573.233530,19:39:33.233,14232,145.302,29.68,1010.85,-0.117,-0.128,0.082,0.0,229.19,-0.75,-2.69,243,0,1,30.0
1782729573.233540,19:39:33.233,14233,145.312,29.68,1010.85,-0.117,-0.128,0.082,0.0,229.19,-0.75,-2.69,243,0,1,30.0
1782729573.347621,19:39:33.347,14234,145.322,29.68,1010.85,-0.117,-0.127,0.082,0.0,229.19,-0.75,-2.69,243,0,1,30.0
1782729573.347696,19:39:33.347,14235,145.332,29.68,1010.85,-0.117,-0.126,0.082,0.0,229.19,-0.75,-2.69,243,0,1,30.0
1782729573.347711,19:39:33.347,14236,145.342,29.68,1010.85,-0.117,-0.125,0.082,0.0,229.19,-0.75,-2.69,243,0,1,30.0
1782729573.347723,19:39:33.347,14237,145.352,29.68,1010.85,-0.117,-0.123,0.062,0.0,229.19,-0.75,-2.69,243,0,1,30.0
1782729573.347857,19:39:33.347,14238,145.362,29.68,1010.85,-0.117,-0.122,0.062,0.0,229.19,-0.75,-2.69,243,0,1,30.0
1782729573.348620,19:39:33.348,14239,145.372,29.68,1010.85,-0.117,-0.121,0.062,0.0,229.19,-0.75,-2.69,243,0,1,30.0
1782729573.348640,19:39:33.348,14240,145.382,29.68,1010.85,-0.117,-0.121,0.062,0.0,229.19,-0.75,-2.69,243,0,1,30.0
1782729573.348652,19:39:33.348,14241,145.392,29.68,1010.85,-0.117,-0.12,0.062,0.0,229.19,-0.75,-2.69,243,0,1,30.0
1782729573.348663,19:39:33.348,14242,145.402,29.68,1010.85,-0.117,-0.119,0.046,0.0,229.19,-0.75,-2.69,243,0,1,30.0
1782729573.348674,19:39:33.348,14243,145.412,29.68,1010.85,-0.117,-0.119,0.046,0.0,229.19,-0.75,-2.69,243,0,1,30.0
1782729573.348686,19:39:33.348,14244,145.422,29.68,1010.85,-0.117,-0.118,0.046,0.0,229.19,-0.75,-2.69,243,0,1,30.0
1782729573.463620,19:39:33.463,14245,145.432,29.68,1010.85,-0.117,-0.118,0.046,0.0,229.19,-0.75,-2.69,243,0,1,30.0
1782729573.463695,19:39:33.463,14246,145.442,29.68,1010.85,-0.117,-0.117,0.046,0.0,229.19,-0.75,-2.69,243,0,1,30.0
1782729573.463712,19:39:33.463,14247,145.452,29.68,1010.85,-0.117,-0.117,0.035,0.0,229.19,-0.75,-2.69,243,0,1,30.0
1782729573.463723,19:39:33.463,14248,145.462,29.68,1010.85,-0.117,-0.116,0.035,0.0,229.19,-0.75,-2.69,243,0,1,30.0
1782729573.463737,19:39:33.463,14249,145.472,29.68,1010.85,-0.117,-0.116,0.035,0.0,229.19,-0.75,-2.69,243,0,1,30.0
1782729573.464407,19:39:33.464,14250,145.482,29.68,1010.85,-0.117,-0.116,0.035,0.0,229.19,-0.75,-2.69,243,0,1,30.0
1782729573.464425,19:39:33.464,14251,145.492,29.68,1010.85,-0.117,-0.115,0.035,0.0,229.19,-0.75,-2.69,243,0,1,30.0
1782729573.464437,19:39:33.464,14252,145.502,29.68,1010.85,-0.117,-0.115,0.026,0.0,229.19,-0.75,-2.69,243,0,1,30.0
1782729573.464449,19:39:33.464,14253,145.512,29.68,1010.85,-0.117,-0.115,0.026,0.0,229.19,-0.75,-2.69,243,0,1,30.0
1782729573.464459,19:39:33.464,14254,145.522,29.68,1010.85,-0.117,-0.115,0.026,0.0,229.19,-0.75,-2.69,243,0,1,30.0
1782729573.464862,19:39:33.464,14255,145.532,29.68,1010.85,-0.117,-0.115,0.026,0.0,229.19,-0.75,-2.69,243,0,1,30.0
1782729573.464879,19:39:33.464,14256,145.542,29.68,1010.85,-0.117,-0.114,0.026,0.0,229.19,-0.75,-2.69,243,0,1,30.0
1782729573.464891,19:39:33.464,14257,145.552,29.69,1010.85,-0.117,-0.115,0.019,0.0,229.19,-0.75,-2.69,243,0,1,30.0
1782729573.464902,19:39:33.464,14258,145.562,29.69,1010.85,-0.117,-0.114,0.019,0.0,229.19,-0.75,-2.69,243,0,1,30.0
1782729573.464912,19:39:33.464,14259,145.572,29.69,1010.85,-0.117,-0.114,0.019,0.0,229.19,-0.75,-2.69,243,0,1,30.0
1782729573.464922,19:39:33.464,14260,145.582,29.69,1010.85,-0.117,-0.114,0.019,0.0,229.19,-0.75,-2.69,243,0,1,30.0
1782729573.579733,19:39:33.579,14261,145.592,29.69,1010.85,-0.117,-0.114,0.019,0.0,229.19,-0.75,-2.69,243,0,1,30.0
1782729573.579800,19:39:33.579,14262,145.602,29.69,1010.85,-0.117,-0.114,0.015,0.0,229.19,-0.75,-2.69,243,0,1,30.0
1782729573.579814,19:39:33.579,14263,145.612,29.69,1010.85,-0.117,-0.114,0.015,0.0,229.19,-0.75,-2.69,243,0,1,30.0
1782729573.579825,19:39:33.579,14264,145.622,29.69,1010.85,-0.117,-0.114,0.015,0.0,229.19,-0.75,-2.69,243,0,1,30.0
1782729573.579837,19:39:33.579,14265,145.632,29.69,1010.85,-0.117,-0.114,0.015,0.0,229.19,-0.75,-2.69,243,0,1,30.0
1782729573.579847,19:39:33.579,14266,145.642,29.69,1010.85,-0.117,-0.114,0.015,0.0,229.19,-0.75,-2.69,243,0,1,30.0
1782729573.580507,19:39:33.580,14267,145.652,29.69,1010.85,-0.117,-0.114,0.011,0.0,229.19,-0.75,-2.69,243,0,1,30.0
1782729573.580523,19:39:33.580,14268,145.662,29.69,1010.85,-0.117,-0.114,0.011,0.0,229.19,-0.75,-2.69,243,0,1,30.0
1782729573.580534,19:39:33.580,14269,145.672,29.69,1010.85,-0.117,-0.114,0.011,0.0,229.19,-0.75,-2.69,243,0,1,30.0
1782729573.580544,19:39:33.580,14270,145.682,29.69,1010.85,-0.117,-0.114,0.011,0.0,229.19,-0.88,-2.69,243,0,1,30.0
1782729573.580554,19:39:33.580,14271,145.692,29.69,1010.85,-0.117,-0.114,0.011,0.0,229.31,-0.88,-2.69,243,0,1,30.0
1782729573.580565,19:39:33.580,14272,145.702,29.69,1010.85,-0.117,-0.114,0.008,0.0,229.31,-0.88,-2.69,243,0,1,30.0
1782729573.698170,19:39:33.698,14273,145.712,29.69,1010.85,-0.117,-0.114,0.008,0.0,229.31,-0.88,-2.69,243,0,1,30.0
1782729573.698243,19:39:33.698,14274,145.722,29.69,1010.85,-0.117,-0.114,0.008,0.0,229.63,-0.88,-2.69,243,0,1,30.0
1782729573.698260,19:39:33.698,14275,145.732,29.69,1010.85,-0.117,-0.114,0.008,0.0,229.63,-0.88,-2.69,243,0,1,30.0
1782729573.698273,19:39:33.698,14276,145.742,29.69,1010.85,-0.117,-0.114,0.008,0.0,229.63,-0.88,-2.69,243,0,1,30.0
1782729573.698284,19:39:33.698,14277,145.752,29.69,1010.85,-0.117,-0.114,0.006,0.0,229.75,-0.88,-2.69,243,0,1,30.0
1782729573.698295,19:39:33.698,14278,145.762,29.69,1010.85,-0.117,-0.114,0.006,0.0,229.75,-0.88,-2.69,243,0,1,30.0
1782729573.699040,19:39:33.699,14279,145.772,29.69,1010.85,-0.117,-0.114,0.006,0.0,229.75,-0.88,-2.69,243,0,1,30.0
1782729573.699059,19:39:33.699,14280,145.782,29.69,1010.85,-0.117,-0.114,0.006,0.0,229.75,-0.88,-2.69,243,0,1,30.0
1782729573.699071,19:39:33.699,14281,145.792,29.69,1010.85,-0.117,-0.114,0.006,0.0,229.75,-0.88,-2.56,243,0,1,30.0
1782729573.699083,19:39:33.699,14282,145.802,29.69,1010.85,-0.117,-0.115,0.001,-0.469,229.75,-0.75,-2.56,243,0,1,30.0
1782729573.699094,19:39:33.699,14283,145.812,29.69,1010.85,-0.117,-0.115,0.001,0.0,229.75,-0.75,-2.56,243,0,1,30.0
1782729573.813603,19:39:33.813,14284,145.822,29.69,1010.85,-0.117,-0.115,0.001,0.0,229.75,-0.75,-2.56,243,0,1,30.0
1782729573.813664,19:39:33.813,14285,145.832,29.69,1010.85,-0.117,-0.115,0.001,0.0,229.75,-0.75,-2.56,243,0,1,30.0
1782729573.813679,19:39:33.813,14286,145.842,29.69,1010.85,-0.117,-0.115,0.001,0.0,229.75,-0.75,-2.56,243,0,1,30.0
1782729573.813693,19:39:33.813,14287,145.852,29.69,1010.85,-0.117,-0.115,0.001,0.0,229.75,-0.75,-2.56,243,0,1,30.0
1782729573.813786,19:39:33.813,14288,145.862,29.69,1010.85,-0.117,-0.115,0.001,0.0,229.75,-0.75,-2.56,243,0,1,30.0
1782729573.813799,19:39:33.813,14289,145.872,29.69,1010.85,-0.117,-0.115,0.001,0.0,229.75,-0.75,-2.56,243,0,1,30.0
1782729573.814412,19:39:33.814,14290,145.882,29.69,1010.85,-0.117,-0.115,0.001,0.0,229.75,-0.75,-2.56,243,0,1,30.0
1782729573.814427,19:39:33.814,14291,145.892,29.69,1010.85,-0.117,-0.115,0.001,0.0,229.75,-0.75,-2.56,243,0,1,30.0
1782729573.814438,19:39:33.814,14292,145.902,29.69,1010.85,-0.117,-0.115,0.001,0.0,229.75,-0.75,-2.56,243,0,1,30.0
1782729573.814448,19:39:33.814,14293,145.912,29.69,1010.85,-0.117,-0.115,0.001,0.0,229.75,-0.75,-2.56,243,0,1,30.0
1782729573.814459,19:39:33.814,14294,145.922,29.69,1010.85,-0.117,-0.115,0.001,0.0,229.75,-0.75,-2.56,243,0,1,30.0
1782729573.930174,19:39:33.930,14300,145.982,29.69,1010.85,-0.117,-0.115,0.0,0.0,229.75,-0.75,-2.56,243,0,1,30.0
1782729573.930234,19:39:33.930,14301,145.992,29.69,1010.85,-0.117,-0.115,0.0,0.0,229.75,-0.75,-2.56,243,0,1,30.0
1782729573.930248,19:39:33.930,14302,146.002,29.69,1010.85,-0.117,-0.115,0.0,0.0,229.75,-0.75,-2.56,243,0,1,30.0
1782729573.930261,19:39:33.930,14303,146.013,29.69,1010.85,-0.117,-0.116,0.0,0.0,229.75,-0.75,-2.56,243,0,1,30.0
1782729573.930273,19:39:33.930,14304,146.022,29.69,1010.85,-0.117,-0.116,0.0,0.0,229.75,-0.88,-2.56,243,0,1,30.0
1782729573.930284,19:39:33.930,14305,146.032,29.69,1010.85,-0.117,-0.116,0.0,0.0,229.75,-0.88,-2.56,243,0,1,30.0
1782729574.045174,19:39:34.045,14306,146.042,29.69,1010.85,-0.117,-0.116,0.0,0.0,229.75,-0.88,-2.56,243,0,1,30.0
1782729574.045504,19:39:34.045,14307,146.053,29.69,1010.86,-0.203,-0.133,-0.534,0.0,229.75,-0.88,-2.56,243,2,1,30.0
1782729574.045527,19:39:34.045,14308,146.062,29.69,1010.86,-0.203,-0.138,-0.534,0.0,229.75,-0.88,-2.56,243,2,1,30.0
1782729574.045540,19:39:34.045,14309,146.072,29.69,1010.86,-0.203,-0.144,-0.534,0.0,229.75,-0.88,-2.56,243,2,1,30.0
1782729574.045552,19:39:34.045,14310,146.082,29.69,1010.86,-0.203,-0.149,-0.534,0.0,229.75,-0.88,-2.56,243,2,1,30.0
1782729574.046039,19:39:34.046,14311,146.092,29.69,1010.86,-0.203,-0.154,-0.534,0.0,229.75,-0.88,-2.56,243,2,1,30.0
1782729574.046054,19:39:34.046,14312,146.102,29.69,1010.85,-0.117,-0.151,0.038,0.0,229.75,-0.88,-2.56,243,0,1,30.0
1782729574.046065,19:39:34.046,14313,146.112,29.69,1010.85,-0.117,-0.15,0.038,0.0,229.75,-0.88,-2.56,243,0,1,30.0
1782729574.046076,19:39:34.046,14314,146.122,29.69,1010.85,-0.117,-0.15,0.038,0.0,229.75,-0.88,-2.56,243,0,1,30.0
1782729574.046087,19:39:34.046,14315,146.132,29.69,1010.85,-0.117,-0.15,0.038,0.0,229.75,-0.88,-2.56,243,0,1,30.0
1782729574.046097,19:39:34.046,14316,146.142,29.69,1010.85,-0.117,-0.149,0.038,0.0,229.75,-0.88,-2.56,243,0,1,30.0
1782729574.161228,19:39:34.161,14317,146.152,29.69,1010.85,-0.117,-0.142,0.029,0.0,229.75,-0.88,-2.56,243,0,1,30.0
1782729574.161295,19:39:34.161,14318,146.162,29.69,1010.85,-0.117,-0.142,0.029,0.0,229.75,-0.88,-2.56,243,0,1,30.0
1782729574.161310,19:39:34.161,14319,146.172,29.69,1010.85,-0.117,-0.142,0.029,0.0,229.75,-0.88,-2.56,243,0,1,30.0
1782729574.161321,19:39:34.161,14320,146.182,29.69,1010.85,-0.117,-0.142,0.029,0.0,229.75,-0.88,-2.56,243,0,1,30.0
1782729574.161333,19:39:34.161,14321,146.192,29.69,1010.85,-0.117,-0.141,0.029,0.0,229.75,-0.88,-2.56,243,0,1,30.0
1782729574.162019,19:39:34.162,14322,146.202,29.69,1010.85,-0.117,-0.136,0.021,0.0,229.75,-0.88,-2.56,243,0,1,30.0
1782729574.162035,19:39:34.162,14323,146.212,29.69,1010.85,-0.117,-0.136,0.021,0.0,229.75,-0.88,-2.56,243,0,1,30.0
1782729574.162046,19:39:34.162,14324,146.222,29.69,1010.85,-0.117,-0.136,0.021,0.0,229.75,-0.88,-2.56,243,0,1,30.0
1782729574.162057,19:39:34.162,14325,146.232,29.69,1010.85,-0.117,-0.135,0.021,0.0,229.75,-0.88,-2.56,243,0,1,30.0
1782729574.162068,19:39:34.162,14326,146.242,29.69,1010.85,-0.117,-0.135,0.021,0.0,229.75,-0.88,-2.56,243,0,1,30.0
1782729574.162079,19:39:34.162,14327,146.252,29.69,1010.85,-0.117,-0.131,0.016,0.0,229.75,-0.88,-2.56,243,0,1,30.0
1782729574.276430,19:39:34.276,14328,146.262,29.69,1010.85,-0.117,-0.131,0.016,0.0,229.75,-0.88,-2.56,243,0,1,30.0
1782729574.276505,19:39:34.276,14329,146.272,29.69,1010.85,-0.117,-0.131,0.016,0.0,229.75,-0.88,-2.56,243,0,1,30.0
1782729574.276522,19:39:34.276,14330,146.282,29.69,1010.85,-0.117,-0.131,0.016,0.0,229.75,-0.88,-2.56,243,0,1,30.0
1782729574.276534,19:39:34.276,14331,146.292,29.69,1010.85,-0.117,-0.131,0.016,0.0,229.75,-0.88,-2.56,243,0,1,30.0
1782729574.276545,19:39:34.276,14332,146.302,29.69,1010.85,-0.117,-0.131,0.016,0.0,229.75,-0.88,-2.56,243,0,1,30.0
1782729574.277254,19:39:34.277,14333,146.312,29.69,1010.85,-0.117,-0.128,0.012,0.0,229.75,-0.88,-2.56,243,0,1,30.0
1782729574.277275,19:39:34.277,14334,146.322,29.69,1010.85,-0.117,-0.128,0.012,0.0,229.75,-0.88,-2.56,243,0,1,30.0
1782729574.277286,19:39:34.277,14335,146.332,29.69,1010.85,-0.117,-0.127,0.012,0.0,229.75,-0.88,-2.56,243,0,1,30.0
1782729574.277297,19:39:34.277,14336,146.342,29.69,1010.85,-0.117,-0.127,0.012,0.0,229.75,-0.88,-2.56,243,0,1,30.0
1782729574.277307,19:39:34.277,14337,146.352,29.69,1010.85,-0.117,-0.127,0.012,0.0,229.75,-0.88,-2.56,243,0,1,30.0
1782729574.392788,19:39:34.392,14338,146.362,29.69,1010.85,-0.117,-0.125,0.009,0.0,229.75,-0.88,-2.56,243,0,1,30.0
1782729574.392857,19:39:34.392,14339,146.372,29.69,1010.85,-0.117,-0.125,0.009,0.0,229.75,-0.88,-2.56,243,0,1,30.0
1782729574.392871,19:39:34.392,14340,146.382,29.69,1010.85,-0.117,-0.125,0.009,0.0,229.75,-0.88,-2.56,243,0,1,30.0
1782729574.392883,19:39:34.392,14341,146.392,29.69,1010.85,-0.117,-0.125,0.009,0.0,229.75,-0.88,-2.56,243,0,1,30.0
1782729574.392893,19:39:34.392,14342,146.402,29.69,1010.85,-0.117,-0.125,0.009,0.0,229.75,-0.88,-2.56,243,0,1,30.0
1782729574.393008,19:39:34.393,14343,146.413,29.69,1010.85,-0.117,-0.123,0.007,0.0,229.75,-0.88,-2.56,243,0,1,30.0
1782729574.393700,19:39:34.393,14344,146.422,29.69,1010.85,-0.117,-0.123,0.007,0.0,229.75,-0.88,-2.56,243,0,1,30.0
1782729574.393716,19:39:34.393,14345,146.432,29.69,1010.85,-0.117,-0.123,0.007,0.0,229.75,-0.88,-2.56,243,0,1,30.0
1782729574.393728,19:39:34.393,14346,146.442,29.69,1010.85,-0.117,-0.123,0.007,0.0,229.75,-0.88,-2.56,243,0,1,30.0
1782729574.393738,19:39:34.393,14347,146.452,29.69,1010.85,-0.117,-0.123,0.007,0.0,229.75,-0.88,-2.56,243,0,1,30.0
1782729574.393749,19:39:34.393,14348,146.462,29.69,1010.85,-0.117,-0.121,0.005,0.0,229.75,-0.88,-2.56,243,0,1,30.0
1782729574.393759,19:39:34.393,14349,146.473,29.69,1010.85,-0.117,-0.121,0.005,0.0,229.75,-0.88,-2.56,243,0,1,30.0
1782729574.508954,19:39:34.508,14350,146.485,29.69,1010.85,-0.117,-0.121,0.005,0.0,229.75,-0.88,-2.56,243,0,1,30.0
1782729574.509020,19:39:34.509,14351,146.493,29.69,1010.85,-0.117,-0.121,0.005,0.0,229.75,-0.88,-2.56,243,0,1,30.0
1782729574.509037,19:39:34.509,14352,146.503,29.69,1010.85,-0.117,-0.12,0.004,0.0,229.75,-0.88,-2.56,243,0,1,30.0
1782729574.509050,19:39:34.509,14353,146.513,29.69,1010.85,-0.117,-0.12,0.004,0.0,229.75,-0.88,-2.56,243,0,1,30.0
1782729574.509062,19:39:34.509,14354,146.522,29.69,1010.85,-0.117,-0.12,0.004,0.0,229.75,-0.88,-2.56,243,0,1,30.0
1782729574.509074,19:39:34.509,14355,146.532,29.69,1010.85,-0.117,-0.12,0.004,0.0,229.75,-0.88,-2.56,243,0,1,30.0
1782729574.509713,19:39:34.509,14356,146.542,29.69,1010.85,-0.117,-0.12,0.004,0.0,229.75,-0.88,-2.56,243,0,1,30.0
1782729574.509728,19:39:34.509,14357,146.553,29.7,1010.86,-0.203,-0.137,-0.427,0.0,229.75,-0.88,-2.56,243,2,1,30.0
1782729574.509740,19:39:34.509,14358,146.562,29.7,1010.86,-0.203,-0.141,-0.427,0.0,229.75,-0.88,-2.56,243,2,1,30.0
1782729574.509752,19:39:34.509,14359,146.572,29.7,1010.86,-0.203,-0.145,-0.427,0.0,229.75,-0.88,-2.56,243,2,1,30.0
1782729574.509763,19:39:34.509,14360,146.582,29.7,1010.86,-0.203,-0.149,-0.427,0.0,229.75,-0.88,-2.56,243,2,1,30.0
1782729574.509777,19:39:34.509,14361,146.592,29.7,1010.86,-0.203,-0.153,-0.427,0.0,229.75,-0.88,-2.56,243,2,1,30.0
1782729574.632348,19:39:34.632,14362,146.604,29.7,1010.86,-0.203,-0.159,-0.427,0.0,229.75,-0.88,-2.56,243,2,1,30.0
1782729574.632421,19:39:34.632,14363,146.612,29.7,1010.86,-0.203,-0.17,-0.321,0.0,229.75,-0.88,-2.56,243,2,1,30.0
1782729574.632436,19:39:34.632,14364,146.623,29.7,1010.86,-0.203,-0.174,-0.321,0.0,229.75,-0.88,-2.56,243,2,1,30.0
1782729574.632450,19:39:34.632,14365,146.632,29.7,1010.86,-0.203,-0.176,-0.321,0.0,229.75,-0.88,-2.56,243,2,1,30.0
1782729574.632463,19:39:34.632,14366,146.642,29.7,1010.86,-0.203,-0.18,-0.321,0.0,229.75,-0.88,-2.56,243,2,1,30.0
1782729574.632474,19:39:34.632,14367,146.652,29.7,1010.86,-0.203,-0.183,-0.321,0.0,229.75,-0.88,-2.56,243,2,1,30.0
1782729574.632927,19:39:34.632,14368,146.662,29.7,1010.86,-0.203,-0.189,-0.24,0.0,229.75,-0.88,-2.56,243,2,1,30.0
1782729574.632943,19:39:34.632,14369,146.672,29.7,1010.86,-0.203,-0.192,-0.24,0.0,229.75,-0.88,-2.56,243,2,1,30.0
1782729574.632955,19:39:34.632,14370,146.682,29.7,1010.86,-0.203,-0.194,-0.24,0.0,229.75,-0.88,-2.56,243,2,1,30.0
1782729574.632967,19:39:34.632,14371,146.692,29.7,1010.86,-0.203,-0.197,-0.24,0.0,229.75,-0.88,-2.56,243,2,1,30.0
1782729574.632978,19:39:34.632,14372,146.702,29.7,1010.86,-0.203,-0.199,-0.24,0.0,229.75,-0.88,-2.56,243,2,1,30.0
1782729574.632990,19:39:34.632,14373,146.714,29.7,1010.85,-0.117,-0.185,0.235,0.0,229.75,-0.88,-2.56,243,0,1,30.0
1782729574.752050,19:39:34.752,14374,146.73,29.7,1010.85,-0.117,-0.181,0.235,0.0,229.75,-0.88,-2.56,243,0,1,30.0
1782729574.752124,19:39:34.752,14375,146.732,29.7,1010.85,-0.117,-0.181,0.235,0.0,229.75,-0.88,-2.56,243,0,1,30.0
1782729574.752139,19:39:34.752,14376,146.742,29.7,1010.85,-0.117,-0.178,0.235,0.0,229.75,-0.88,-2.56,243,0,1,30.0
1782729574.752150,19:39:34.752,14377,146.752,29.7,1010.85,-0.117,-0.176,0.235,0.0,229.75,-0.88,-2.56,243,0,1,30.0
1782729574.752163,19:39:34.752,14378,146.762,29.7,1010.85,-0.117,-0.162,0.176,0.0,229.75,-0.88,-2.56,243,0,1,30.0
1782729574.752173,19:39:34.752,14379,146.772,29.7,1010.85,-0.117,-0.16,0.176,0.0,229.75,-0.88,-2.56,243,0,1,30.0
1782729574.752801,19:39:34.752,14380,146.782,29.7,1010.85,-0.117,-0.159,0.176,0.0,229.75,-0.88,-2.56,243,0,1,30.0
1782729574.752817,19:39:34.752,14381,146.792,29.7,1010.85,-0.117,-0.157,0.176,0.0,229.75,-0.88,-2.56,243,0,1,30.0
1782729574.752828,19:39:34.752,14382,146.802,29.7,1010.85,-0.117,-0.147,0.132,0.0,229.75,-0.88,-2.56,243,0,1,30.0
1782729574.752839,19:39:34.752,14383,146.812,29.7,1010.85,-0.117,-0.146,0.132,0.0,229.75,-0.88,-2.56,243,0,1,30.0
1782729574.752850,19:39:34.752,14384,146.822,29.7,1010.85,-0.117,-0.145,0.132,0.0,229.75,-0.88,-2.56,243,0,1,30.0
1782729574.752861,19:39:34.752,14385,146.832,29.7,1010.85,-0.117,-0.144,0.132,0.0,229.75,-0.88,-2.56,243,0,1,30.0
1782729574.868403,19:39:34.868,14386,146.842,29.7,1010.85,-0.117,-0.142,0.132,0.0,229.75,-0.88,-2.56,243,0,1,30.0
1782729574.868459,19:39:34.868,14387,146.852,29.7,1010.85,-0.117,-0.136,0.099,0.0,229.75,-0.88,-2.56,243,0,1,30.0
1782729574.868472,19:39:34.868,14388,146.862,29.7,1010.85,-0.117,-0.135,0.099,0.0,229.75,-0.88,-2.56,243,0,1,30.0
1782729574.868485,19:39:34.868,14389,146.872,29.7,1010.85,-0.117,-0.134,0.099,0.0,229.75,-0.88,-2.56,243,0,1,30.0
1782729574.868496,19:39:34.868,14390,146.882,29.7,1010.85,-0.117,-0.133,0.099,0.0,229.75,-0.88,-2.56,243,0,1,30.0
1782729574.869079,19:39:34.869,14391,146.893,29.7,1010.85,-0.117,-0.132,0.099,0.0,229.75,-0.88,-2.56,243,0,1,30.0
1782729574.869094,19:39:34.869,14392,146.902,29.7,1010.85,-0.117,-0.128,0.074,0.0,229.75,-0.88,-2.56,243,0,1,30.0
1782729574.869195,19:39:34.869,14393,146.912,29.7,1010.85,-0.117,-0.127,0.074,0.0,229.75,-0.88,-2.56,243,0,1,30.0
1782729574.869208,19:39:34.869,14394,146.922,29.7,1010.85,-0.117,-0.127,0.074,0.0,229.75,-0.88,-2.56,243,0,1,30.0
1782729574.869220,19:39:34.869,14395,146.932,29.7,1010.85,-0.117,-0.126,0.074,0.0,229.75,-0.88,-2.56,243,0,1,30.0
1782729574.869670,19:39:34.869,14396,146.942,29.7,1010.85,-0.117,-0.125,0.074,0.0,229.75,-0.88,-2.56,243,0,1,30.0
1782729574.869685,19:39:34.869,14397,146.952,29.7,1010.85,-0.117,-0.123,0.056,0.0,229.75,-0.88,-2.56,243,0,1,30.0
1782729574.869697,19:39:34.869,14398,146.962,29.7,1010.85,-0.117,-0.122,0.056,0.0,229.75,-0.88,-2.56,243,0,1,30.0
1782729574.869709,19:39:34.869,14399,146.972,29.7,1010.85,-0.117,-0.122,0.056,0.0,229.75,-0.88,-2.56,243,0,1,30.0
1782729574.869721,19:39:34.869,14400,146.982,29.7,1010.85,-0.117,-0.121,0.056,0.0,229.75,-0.88,-2.56,243,0,1,30.0
1782729574.869732,19:39:34.869,14401,146.992,29.7,1010.85,-0.117,-0.121,0.056,0.0,229.75,-0.88,-2.56,243,0,1,30.0
1782729574.984752,19:39:34.984,14402,147.005,29.7,1010.85,-0.117,-0.119,0.042,0.0,229.75,-0.88,-2.56,243,0,1,30.0
1782729574.984832,19:39:34.984,14403,147.012,29.7,1010.85,-0.117,-0.119,0.042,0.0,229.75,-0.88,-2.56,243,0,1,30.0
1782729574.984847,19:39:34.984,14404,147.022,29.7,1010.85,-0.117,-0.119,0.042,0.0,229.75,-0.88,-2.56,243,0,1,30.0
1782729574.984859,19:39:34.984,14405,147.032,29.7,1010.85,-0.117,-0.118,0.042,0.0,229.75,-0.88,-2.56,243,0,1,30.0
1782729574.984870,19:39:34.984,14406,147.042,29.7,1010.85,-0.117,-0.118,0.042,0.0,229.75,-0.88,-2.56,243,0,1,30.0
1782729574.984881,19:39:34.984,14407,147.052,29.7,1010.85,-0.117,-0.117,0.031,0.0,229.75,-0.88,-2.56,243,0,1,30.0
1782729575.101750,19:39:35.101,14408,147.062,29.7,1010.85,-0.117,-0.117,0.031,0.0,229.75,-0.88,-2.56,243,0,1,30.0
1782729575.102084,19:39:35.102,14409,147.072,29.7,1010.85,-0.117,-0.117,0.031,0.0,229.75,-0.88,-2.56,243,0,1,30.0
1782729575.102103,19:39:35.102,14410,147.082,29.7,1010.85,-0.117,-0.116,0.031,0.0,229.75,-0.88,-2.56,243,0,1,30.0
1782729575.102116,19:39:35.102,14411,147.092,29.7,1010.85,-0.117,-0.116,0.031,0.0,229.75,-0.88,-2.56,243,0,1,30.0
1782729575.102127,19:39:35.102,14412,147.102,29.7,1010.85,-0.117,-0.116,0.023,0.0,229.75,-0.88,-2.56,243,0,1,30.0
1782729575.102139,19:39:35.102,14413,147.112,29.7,1010.85,-0.117,-0.116,0.023,0.0,229.75,-0.88,-2.56,243,0,1,30.0
1782729575.102605,19:39:35.102,14414,147.122,29.7,1010.85,-0.117,-0.115,0.023,0.0,229.75,-0.88,-2.56,243,0,1,30.0
1782729575.102619,19:39:35.102,14415,147.132,29.7,1010.85,-0.117,-0.115,0.023,0.0,229.75,-0.88,-2.56,243,0,1,30.0
1782729575.102630,19:39:35.102,14416,147.143,29.7,1010.86,-0.203,-0.132,-0.508,0.0,229.75,-0.88,-2.56,243,2,1,30.0
1782729575.102641,19:39:35.102,14417,147.152,29.7,1010.86,-0.203,-0.137,-0.508,0.0,229.75,-0.88,-2.56,243,2,1,30.0
1782729575.102652,19:39:35.102,14418,147.162,29.7,1010.86,-0.203,-0.142,-0.508,0.0,229.75,-0.88,-2.56,243,2,1,30.0
1782729575.227435,19:39:35.227,14419,147.172,29.7,1010.86,-0.203,-0.147,-0.508,0.0,229.75,-0.88,-2.56,243,2,1,30.0
1782729575.227515,19:39:35.227,14420,147.182,29.7,1010.86,-0.203,-0.152,-0.508,0.0,229.75,-0.88,-2.56,243,2,1,30.0
1782729575.227530,19:39:35.227,14421,147.192,29.7,1010.86,-0.203,-0.166,-0.381,0.0,229.75,-0.88,-2.56,243,2,1,30.0
1782729575.227545,19:39:35.227,14422,147.202,29.7,1010.86,-0.203,-0.17,-0.381,0.0,229.75,-0.88,-2.56,243,2,1,30.0
1782729575.227556,19:39:35.227,14423,147.212,29.7,1010.86,-0.203,-0.174,-0.381,0.0,229.75,-0.88,-2.56,243,2,1,30.0
1782729575.227567,19:39:35.227,14424,147.222,29.7,1010.86,-0.203,-0.178,-0.381,0.0,229.75,-0.88,-2.56,243,2,1,30.0
1782729575.227999,19:39:35.227,14425,147.232,29.7,1010.86,-0.203,-0.182,-0.381,0.0,229.75,-0.88,-2.56,243,2,1,30.0
1782729575.228016,19:39:35.228,14426,147.242,29.7,1010.85,-0.117,-0.172,0.145,0.0,229.75,-0.88,-2.56,243,0,1,30.0
1782729575.228027,19:39:35.228,14427,147.252,29.7,1010.85,-0.117,-0.17,0.145,0.0,229.75,-0.88,-2.56,243,0,1,30.0
1782729575.228038,19:39:35.228,14428,147.262,29.7,1010.85,-0.117,-0.169,0.145,0.0,229.75,-0.88,-2.56,243,0,1,30.0
1782729575.228050,19:39:35.228,14429,147.272,29.7,1010.85,-0.117,-0.167,0.145,0.0,229.75,-0.88,-2.56,243,0,1,30.0
1782729575.228420,19:39:35.228,14430,147.282,29.7,1010.85,-0.117,-0.166,0.145,0.0,229.75,-0.88,-2.56,243,0,1,30.0
1782729575.228432,19:39:35.228,14431,147.292,29.7,1010.85,-0.117,-0.155,0.108,0.0,229.75,-0.88,-2.56,243,0,1,30.0
1782729575.228444,19:39:35.228,14432,147.302,29.7,1010.85,-0.117,-0.154,0.108,0.0,229.75,-0.88,-2.56,243,0,1,30.0
1782729575.228454,19:39:35.228,14433,147.312,29.7,1010.85,-0.117,-0.153,0.108,0.0,229.75,-0.88,-2.56,243,0,1,30.0
1782729575.228465,19:39:35.228,14434,147.322,29.7,1010.85,-0.117,-0.152,0.108,0.0,229.75,-0.88,-2.56,243,0,1,30.0
1782729575.228476,19:39:35.228,14435,147.332,29.7,1010.85,-0.117,-0.151,0.108,0.0,229.75,-0.88,-2.56,243,0,1,30.0
1782729575.366227,19:39:35.366,14436,147.342,29.7,1010.85,-0.117,-0.143,0.081,0.0,229.75,-0.88,-2.56,243,0,1,30.0
1782729575.366299,19:39:35.366,14437,147.352,29.7,1010.85,-0.117,-0.142,0.081,0.0,229.75,-0.88,-2.56,243,0,1,30.0
1782729575.366315,19:39:35.366,14438,147.362,29.7,1010.85,-0.117,-0.141,0.081,0.0,229.75,-0.88,-2.56,243,0,1,30.0
1782729575.366328,19:39:35.366,14439,147.372,29.7,1010.85,-0.117,-0.141,0.081,0.0,229.75,-0.88,-2.56,243,0,1,30.0
1782729575.366339,19:39:35.366,14440,147.382,29.7,1010.85,-0.117,-0.14,0.079,-0.22,229.75,-0.88,-2.56,243,0,1,30.0
1782729575.366813,19:39:35.366,14441,147.392,29.7,1010.85,-0.117,-0.134,0.059,0.0,229.75,-0.88,-2.56,243,0,1,30.0
1782729575.366830,19:39:35.366,14442,147.402,29.7,1010.85,-0.117,-0.134,0.059,0.0,229.75,-0.88,-2.56,243,0,1,30.0
1782729575.366939,19:39:35.366,14443,147.412,29.7,1010.85,-0.117,-0.133,0.059,0.0,229.75,-0.88,-2.56,243,0,1,30.0
1782729575.366952,19:39:35.366,14444,147.422,29.7,1010.85,-0.117,-0.133,0.059,0.0,229.75,-0.88,-2.56,243,0,1,30.0
1782729575.366965,19:39:35.366,14445,147.432,29.7,1010.85,-0.117,-0.132,0.059,0.0,229.75,-0.88,-2.56,243,0,1,30.0
1782729575.481869,19:39:35.481,14446,147.442,29.7,1010.85,-0.117,-0.129,0.045,0.0,229.75,-0.88,-2.56,243,0,1,30.0
1782729575.481938,19:39:35.481,14447,147.452,29.7,1010.85,-0.117,-0.128,0.045,0.0,229.75,-0.88,-2.56,243,0,1,30.0
1782729575.481954,19:39:35.481,14448,147.462,29.7,1010.85,-0.117,-0.128,0.045,0.0,229.75,-0.88,-2.56,243,0,1,30.0
1782729575.481967,19:39:35.481,14449,147.472,29.7,1010.85,-0.117,-0.127,0.045,0.0,229.75,-0.88,-2.56,243,0,1,30.0
1782729575.481979,19:39:35.481,14450,147.482,29.7,1010.85,-0.117,-0.127,0.045,0.0,229.75,-0.88,-2.56,243,0,1,30.0
1782729575.481990,19:39:35.481,14451,147.492,29.7,1010.86,-0.203,-0.142,-0.397,0.0,229.75,-0.88,-2.56,243,2,1,30.0
1782729575.482656,19:39:35.482,14452,147.502,29.7,1010.86,-0.203,-0.146,-0.397,0.0,229.75,-0.88,-2.56,243,2,1,30.0
1782729575.482673,19:39:35.482,14453,147.512,29.7,1010.86,-0.203,-0.15,-0.397,0.0,229.75,-0.88,-2.56,243,2,1,30.0
1782729575.482684,19:39:35.482,14454,147.522,29.7,1010.86,-0.203,-0.154,-0.397,0.0,229.75,-0.88,-2.56,243,2,1,30.0
1782729575.482695,19:39:35.482,14455,147.532,29.7,1010.86,-0.203,-0.158,-0.397,0.0,229.75,-0.88,-2.56,243,2,1,30.0
1782729575.482706,19:39:35.482,14456,147.542,29.7,1010.86,-0.203,-0.17,-0.298,0.0,229.75,-0.88,-2.56,243,2,1,30.0
1782729575.482718,19:39:35.482,14457,147.552,29.7,1010.86,-0.203,-0.173,-0.298,0.0,229.75,-0.88,-2.56,243,2,1,30.0
1782729575.605739,19:39:35.605,14458,147.562,29.7,1010.86,-0.203,-0.176,-0.298,0.0,229.75,-0.88,-2.56,243,2,1,30.0
1782729575.605817,19:39:35.605,14459,147.572,29.7,1010.86,-0.203,-0.179,-0.298,0.0,229.75,-0.88,-2.56,243,2,1,30.0
1782729575.605832,19:39:35.605,14460,147.582,29.7,1010.86,-0.203,-0.182,-0.298,0.0,229.75,-0.88,-2.56,243,2,1,30.0
1782729575.605844,19:39:35.605,14461,147.592,29.7,1010.86,-0.203,-0.188,-0.224,0.0,229.75,-0.88,-2.56,243,2,1,30.0
1782729575.605856,19:39:35.605,14462,147.602,29.7,1010.86,-0.203,-0.19,-0.224,0.0,229.75,-0.88,-2.56,243,2,1,30.0
1782729575.605867,19:39:35.605,14463,147.612,29.7,1010.86,-0.203,-0.193,-0.224,0.0,229.75,-0.88,-2.56,243,2,1,30.0
1782729575.606342,19:39:35.606,14464,147.622,29.7,1010.86,-0.203,-0.195,-0.224,0.0,229.75,-0.88,-2.56,243,2,1,30.0
1782729575.606358,19:39:35.606,14465,147.632,29.7,1010.86,-0.203,-0.197,-0.224,0.0,229.75,-0.88,-2.56,243,2,1,30.0
1782729575.606369,19:39:35.606,14466,147.642,29.7,1010.86,-0.203,-0.2,-0.168,0.0,229.75,-0.88,-2.56,243,2,1,30.0
1782729575.606382,19:39:35.606,14467,147.652,29.7,1010.86,-0.203,-0.202,-0.168,0.0,229.75,-0.88,-2.56,243,2,1,30.0
1782729575.606392,19:39:35.606,14468,147.662,29.7,1010.86,-0.203,-0.203,-0.168,0.0,229.75,-0.88,-2.56,243,2,1,30.0
1782729575.606404,19:39:35.606,14469,147.672,29.7,1010.86,-0.203,-0.205,-0.168,0.0,229.75,-0.88,-2.56,243,2,1,30.0
1782729575.721809,19:39:35.721,14470,147.682,29.7,1010.86,-0.203,-0.207,-0.168,0.0,229.75,-0.88,-2.56,243,2,1,30.0
1782729575.721875,19:39:35.721,14471,147.692,29.7,1010.85,-0.117,-0.19,0.306,0.0,229.75,-0.88,-2.56,243,0,1,30.0
1782729575.721888,19:39:35.721,14472,147.702,29.7,1010.85,-0.117,-0.187,0.306,0.0,229.75,-0.88,-2.56,243,1,1,30.0
1782729575.721900,19:39:35.721,14473,147.712,29.7,1010.85,-0.117,-0.184,0.306,0.0,229.75,-0.88,-2.56,243,1,1,30.0
1782729575.721912,19:39:35.721,14474,147.722,29.7,1010.85,-0.117,-0.181,0.306,0.0,229.75,-0.88,-2.56,243,1,1,30.0
1782729575.721922,19:39:35.721,14475,147.732,29.7,1010.85,-0.117,-0.178,0.306,0.0,229.75,-0.88,-2.56,243,1,1,30.0
1782729575.722552,19:39:35.722,14476,147.744,29.7,1010.85,-0.117,-0.174,0.306,0.0,229.75,-0.88,-2.56,243,1,1,30.0
1782729575.722569,19:39:35.722,14477,147.752,29.7,1010.85,-0.117,-0.161,0.229,0.0,229.75,-0.88,-2.56,243,1,1,30.0
1782729575.722581,19:39:35.722,14478,147.762,29.7,1010.85,-0.117,-0.158,0.229,0.0,229.75,-0.88,-2.56,243,1,1,30.0
1782729575.722593,19:39:35.722,14479,147.772,29.7,1010.85,-0.117,-0.156,0.229,0.0,229.75,-0.88,-2.56,243,1,1,30.0
1782729575.722604,19:39:35.722,14480,147.782,29.7,1010.85,-0.117,-0.154,0.229,0.0,229.75,-0.88,-2.56,243,1,1,30.0
1782729575.722616,19:39:35.722,14481,147.792,29.7,1010.85,-0.117,-0.152,0.229,0.0,229.75,-0.88,-2.56,243,1,1,30.0
1782729575.722963,19:39:35.722,14482,147.802,29.7,1010.85,-0.117,-0.143,0.172,0.0,229.75,-0.88,-2.56,243,1,1,30.0
1782729575.722978,19:39:35.722,14483,147.812,29.7,1010.85,-0.117,-0.141,0.172,0.0,229.75,-0.88,-2.56,243,1,1,30.0
1782729575.722990,19:39:35.722,14484,147.822,29.7,1010.85,-0.117,-0.139,0.172,0.0,229.75,-0.88,-2.56,243,1,1,30.0
1782729575.723001,19:39:35.723,14485,147.832,29.7,1010.85,-0.117,-0.138,0.172,0.0,229.75,-0.88,-2.56,243,1,1,30.0
1782729575.723012,19:39:35.723,14486,147.842,29.7,1010.85,-0.117,-0.136,0.172,0.0,229.75,-0.88,-2.56,243,1,1,30.0
1782729575.838047,19:39:35.838,14487,147.852,29.7,1010.85,-0.117,-0.131,0.129,0.0,229.75,-0.88,-2.56,243,1,1,30.0
1782729575.838118,19:39:35.838,14488,147.862,29.7,1010.85,-0.117,-0.129,0.129,0.0,229.75,-0.88,-2.56,243,1,1,30.0
1782729575.838134,19:39:35.838,14489,147.873,29.7,1010.85,-0.117,-0.128,0.129,0.0,229.75,-0.88,-2.56,243,1,1,30.0
1782729575.838146,19:39:35.838,14490,147.883,29.7,1010.85,-0.117,-0.127,0.129,0.0,229.75,-0.88,-2.56,243,1,1,30.0
1782729575.838158,19:39:35.838,14491,147.893,29.7,1010.85,-0.117,-0.125,0.129,0.0,229.75,-0.88,-2.56,243,1,1,30.0
1782729575.838865,19:39:35.838,14492,147.902,29.71,1010.86,-0.203,-0.14,-0.333,0.0,229.75,-0.88,-2.56,243,0,1,30.0
1782729575.838976,19:39:35.838,14493,147.913,29.71,1010.86,-0.203,-0.144,-0.333,0.0,229.75,-0.88,-2.56,243,2,1,30.0
1782729575.838990,19:39:35.838,14494,147.922,29.71,1010.86,-0.203,-0.146,-0.333,0.0,229.75,-0.88,-2.56,243,2,1,30.0
1782729575.839001,19:39:35.839,14495,147.933,29.71,1010.86,-0.203,-0.15,-0.333,0.0,229.75,-0.88,-2.56,243,2,1,30.0
1782729575.839012,19:39:35.839,14496,147.942,29.71,1010.86,-0.203,-0.153,-0.333,0.0,229.75,-0.88,-2.56,243,2,1,30.0
1782729575.839022,19:39:35.839,14497,147.953,29.71,1010.86,-0.203,-0.157,-0.333,0.0,229.75,-0.88,-2.56,243,2,1,30.0
1782729575.961497,19:39:35.961,14498,147.963,29.71,1010.86,-0.203,-0.169,-0.25,0.0,229.75,-0.88,-2.56,243,2,1,30.0
1782729575.961580,19:39:35.961,14499,147.972,29.71,1010.86,-0.203,-0.171,-0.25,0.0,229.75,-0.88,-2.56,243,2,1,30.0
1782729575.961599,19:39:35.961,14500,147.983,29.71,1010.86,-0.203,-0.174,-0.25,0.0,229.75,-0.88,-2.56,243,2,1,30.0
1782729575.961612,19:39:35.961,14501,147.992,29.71,1010.86,-0.203,-0.176,-0.25,0.0,229.75,-0.88,-2.56,243,2,1,30.0
1782729575.961624,19:39:35.961,14502,148.003,29.71,1010.86,-0.203,-0.179,-0.25,0.0,229.75,-0.88,-2.56,243,2,1,30.0
1782729575.962115,19:39:35.962,14503,148.012,29.71,1010.86,-0.203,-0.185,-0.187,0.0,229.75,-0.88,-2.56,243,2,1,30.0
1782729575.962132,19:39:35.962,14504,148.022,29.71,1010.86,-0.203,-0.187,-0.187,0.0,229.75,-0.88,-2.56,243,2,1,30.0
1782729575.962144,19:39:35.962,14505,148.032,29.71,1010.86,-0.203,-0.189,-0.187,0.0,229.75,-0.88,-2.56,243,2,1,30.0
1782729575.962154,19:39:35.962,14506,148.042,29.71,1010.86,-0.203,-0.191,-0.187,0.0,229.75,-0.88,-2.56,243,2,1,30.0
1782729575.962164,19:39:35.962,14507,148.052,29.71,1010.86,-0.203,-0.193,-0.187,0.0,229.75,-0.88,-2.56,243,2,1,30.0
1782729575.962175,19:39:35.962,14508,148.064,29.71,1010.86,-0.203,-0.197,-0.14,0.0,229.75,-0.88,-2.56,243,2,1,30.0
1782729576.077278,19:39:36.077,14509,148.073,29.71,1010.86,-0.203,-0.198,-0.14,0.0,229.75,-0.88,-2.56,243,2,1,30.0
1782729576.077358,19:39:36.077,14510,148.083,29.71,1010.86,-0.203,-0.199,-0.14,0.0,229.75,-0.88,-2.56,243,2,1,30.0
1782729576.077374,19:39:36.077,14511,148.092,29.71,1010.86,-0.203,-0.201,-0.14,0.0,229.75,-0.88,-2.56,243,2,1,30.0
1782729576.077386,19:39:36.077,14512,148.102,29.71,1010.86,-0.203,-0.202,-0.14,0.0,229.75,-0.88,-2.56,243,2,1,30.0
1782729576.077397,19:39:36.077,14513,148.112,29.71,1010.86,-0.203,-0.203,-0.105,0.0,229.75,-0.88,-2.56,243,2,1,30.0
1782729576.077407,19:39:36.077,14514,148.122,29.71,1010.86,-0.203,-0.204,-0.105,0.0,229.75,-0.88,-2.56,243,2,1,30.0
1782729576.078041,19:39:36.078,14515,148.133,29.71,1010.86,-0.203,-0.205,-0.105,0.0,229.75,-0.88,-2.56,243,2,1,30.0
1782729576.078060,19:39:36.078,14516,148.142,29.71,1010.86,-0.203,-0.206,-0.105,0.0,229.75,-0.88,-2.56,243,2,1,30.0
1782729576.078071,19:39:36.078,14517,148.153,29.71,1010.86,-0.203,-0.208,-0.105,0.0,229.75,-0.88,-2.56,243,2,1,30.0
1782729576.078081,19:39:36.078,14518,148.163,29.71,1010.86,-0.203,-0.207,-0.079,0.0,229.75,-0.88,-2.56,243,0,1,30.0
1782729576.078092,19:39:36.078,14519,148.173,29.71,1010.86,-0.203,-0.208,-0.079,0.0,229.75,-0.88,-2.56,243,0,1,30.0
1782729576.193010,19:39:36.193,14520,148.185,29.71,1010.86,-0.203,-0.209,-0.079,0.0,229.75,-0.88,-2.56,243,0,1,30.0
1782729576.193146,19:39:36.193,14521,148.192,29.71,1010.86,-0.203,-0.21,-0.079,0.0,229.75,-0.88,-2.56,243,0,1,30.0
1782729576.193165,19:39:36.193,14522,148.203,29.71,1010.86,-0.203,-0.209,-0.059,0.0,229.75,-0.88,-2.56,243,0,1,30.0
1782729576.193178,19:39:36.193,14523,148.213,29.71,1010.86,-0.203,-0.21,-0.059,0.0,229.75,-0.88,-2.56,243,0,1,30.0
1782729576.193191,19:39:36.193,14524,148.222,29.71,1010.86,-0.203,-0.21,-0.059,0.0,229.75,-0.88,-2.56,243,0,1,30.0
1782729576.193201,19:39:36.193,14525,148.233,29.71,1010.86,-0.203,-0.211,-0.059,0.0,229.75,-0.88,-2.56,243,0,1,30.0
1782729576.193646,19:39:36.193,14526,148.242,29.71,1010.86,-0.203,-0.211,-0.059,0.0,229.75,-0.88,-2.56,243,0,1,30.0
1782729576.193659,19:39:36.193,14527,148.253,29.71,1010.86,-0.203,-0.212,-0.059,0.0,229.75,-0.88,-2.56,243,0,1,30.0
1782729576.193670,19:39:36.193,14528,148.262,29.71,1010.86,-0.203,-0.211,-0.044,0.0,229.75,-0.88,-2.56,243,0,1,30.0
1782729576.193680,19:39:36.193,14529,148.273,29.71,1010.86,-0.203,-0.211,-0.044,0.0,229.75,-0.88,-2.56,243,0,1,30.0
1782729576.193692,19:39:36.193,14530,148.283,29.71,1010.86,-0.203,-0.211,-0.044,0.0,229.75,-0.88,-2.56,243,0,1,30.0
1782729576.319556,19:39:36.319,14531,148.292,29.71,1010.86,-0.203,-0.212,-0.044,0.0,229.75,-0.88,-2.56,243,0,1,30.0
1782729576.319649,19:39:36.319,14532,148.303,29.71,1010.86,-0.203,-0.212,-0.044,0.0,229.75,-0.88,-2.56,243,0,1,30.0
1782729576.319662,19:39:36.319,14533,148.313,29.71,1010.86,-0.203,-0.211,-0.033,0.0,229.75,-0.88,-2.56,243,0,1,30.0
1782729576.319674,19:39:36.319,14534,148.323,29.71,1010.86,-0.203,-0.211,-0.033,0.0,229.75,-0.88,-2.56,243,0,1,30.0
1782729576.319685,19:39:36.319,14535,148.333,29.71,1010.86,-0.203,-0.211,-0.033,0.0,229.75,-0.88,-2.56,243,0,1,30.0
1782729576.320314,19:39:36.320,14536,148.342,29.71,1010.86,-0.203,-0.212,-0.033,0.0,229.75,-0.88,-2.56,243,0,1,30.0
1782729576.320329,19:39:36.320,14537,148.352,29.71,1010.86,-0.203,-0.21,-0.025,0.0,229.75,-0.88,-2.56,243,0,1,30.0
1782729576.320340,19:39:36.320,14538,148.362,29.71,1010.86,-0.203,-0.21,-0.025,0.0,229.75,-0.88,-2.56,243,0,1,30.0
1782729576.320353,19:39:36.320,14539,148.373,29.71,1010.86,-0.203,-0.211,-0.025,0.0,229.75,-0.88,-2.56,243,0,1,30.0
1782729576.320364,19:39:36.320,14540,148.383,29.71,1010.86,-0.203,-0.211,-0.025,0.0,229.75,-0.88,-2.56,243,0,1,30.0
1782729576.320715,19:39:36.320,14541,148.395,29.71,1010.86,-0.203,-0.211,-0.025,0.0,229.75,-0.88,-2.56,243,0,1,30.0
1782729576.320730,19:39:36.320,14542,148.403,29.71,1010.86,-0.203,-0.212,-0.025,0.0,229.75,-0.88,-2.56,243,0,1,30.0
1782729576.320826,19:39:36.320,14543,148.413,29.71,1010.86,-0.203,-0.21,-0.019,0.0,229.75,-0.88,-2.56,243,0,1,30.0
1782729576.320839,19:39:36.320,14544,148.423,29.71,1010.86,-0.203,-0.21,-0.019,0.0,229.75,-0.88,-2.56,243,0,1,30.0
1782729576.320850,19:39:36.320,14545,148.434,29.71,1010.86,-0.203,-0.21,-0.019,0.0,229.75,-0.88,-2.56,243,0,1,30.0
1782729576.435043,19:39:36.435,14546,148.442,29.71,1010.86,-0.203,-0.21,-0.019,0.0,229.75,-0.88,-2.56,243,0,1,30.0
1782729576.435085,19:39:36.435,14547,148.453,29.71,1010.86,-0.203,-0.209,-0.014,0.0,229.75,-0.88,-2.56,243,0,1,30.0
1782729576.435098,19:39:36.435,14548,148.462,29.71,1010.86,-0.203,-0.209,-0.014,0.0,229.75,-0.88,-2.56,243,0,1,30.0
1782729576.435109,19:39:36.435,14549,148.474,29.71,1010.86,-0.203,-0.209,-0.014,0.0,229.75,-0.88,-2.56,243,0,1,30.0
1782729576.435120,19:39:36.435,14550,148.484,29.71,1010.86,-0.203,-0.21,-0.014,0.0,229.75,-0.88,-2.56,243,0,1,30.0
1782729576.435649,19:39:36.435,14551,148.493,29.71,1010.86,-0.203,-0.21,-0.014,0.0,229.75,-0.88,-2.56,243,0,1,30.0
1782729576.435664,19:39:36.435,14552,148.503,29.71,1010.86,-0.203,-0.21,-0.014,0.0,229.75,-0.88,-2.56,243,0,1,30.0
1782729576.435675,19:39:36.435,14553,148.513,29.71,1010.85,-0.117,-0.191,0.346,0.0,229.75,-0.88,-2.56,243,1,1,30.0
1782729576.435686,19:39:36.435,14554,148.522,29.71,1010.85,-0.117,-0.188,0.346,0.0,229.75,-0.88,-2.56,243,1,1,30.0
1782729576.435696,19:39:36.435,14555,148.533,29.71,1010.85,-0.117,-0.184,0.346,0.0,229.75,-0.88,-2.56,243,1,1,30.0
1782729576.435707,19:39:36.435,14556,148.542,29.71,1010.85,-0.117,-0.181,0.344,-0.183,229.75,-0.88,-2.56,243,1,1,30.0
1782729576.551166,19:39:36.551,14557,148.554,29.71,1010.85,-0.117,-0.177,0.342,-0.189,229.75,-0.88,-2.56,243,1,1,30.0
1782729576.551241,19:39:36.551,14558,148.563,29.71,1010.85,-0.117,-0.163,0.256,0.0,229.75,-0.88,-2.56,243,1,1,30.0
1782729576.551257,19:39:36.551,14559,148.572,29.71,1010.85,-0.117,-0.16,0.256,0.0,229.75,-0.88,-2.56,243,1,1,30.0
1782729576.551269,19:39:36.551,14560,148.582,29.71,1010.85,-0.117,-0.158,0.256,0.0,229.75,-0.88,-2.56,243,1,1,30.0
1782729576.551281,19:39:36.551,14561,148.592,29.71,1010.85,-0.117,-0.155,0.254,-0.203,229.5,-0.88,-2.56,243,1,1,30.0
1782729576.551762,19:39:36.551,14562,148.602,29.71,1010.85,-0.117,-0.153,0.254,0.0,229.5,-0.88,-2.56,243,1,1,30.0
1782729576.551780,19:39:36.551,14563,148.612,29.71,1010.85,-0.117,-0.143,0.189,-0.199,229.31,-0.88,-2.56,243,1,1,30.0
1782729576.551791,19:39:36.551,14564,148.622,29.71,1010.85,-0.117,-0.142,0.189,0.0,229.13,-0.88,-2.56,243,1,1,30.0
1782729576.551802,19:39:36.551,14565,148.632,29.71,1010.85,-0.117,-0.14,0.189,0.0,228.94,-0.88,-2.56,243,1,1,30.0
1782729576.551813,19:39:36.551,14566,148.642,29.71,1010.85,-0.117,-0.138,0.187,-0.196,228.75,-0.88,-2.56,243,1,1,30.0
1782729576.666452,19:39:36.666,14567,148.652,29.71,1010.85,-0.117,-0.132,0.139,-0.176,228.56,-0.88,-2.56,243,1,1,30.0
1782729576.666531,19:39:36.666,14568,148.662,29.71,1010.85,-0.117,-0.131,0.139,0.0,228.38,-0.88,-2.56,243,1,1,30.0
1782729576.666548,19:39:36.666,14569,148.673,29.71,1010.85,-0.117,-0.129,0.139,0.0,228.38,-0.88,-2.56,243,1,1,30.0
1782729576.666560,19:39:36.666,14570,148.682,29.71,1010.85,-0.117,-0.128,0.139,0.0,228.06,-1.0,-2.56,243,1,1,30.0
1782729576.666572,19:39:36.666,14571,148.692,29.71,1010.85,-0.117,-0.127,0.139,0.0,227.94,-1.0,-2.56,243,1,1,30.0
1782729576.666583,19:39:36.666,14572,148.702,29.71,1010.85,-0.117,-0.123,0.104,0.0,227.81,-1.0,-2.56,243,1,1,30.0
1782729576.667241,19:39:36.667,14573,148.712,29.71,1010.85,-0.117,-0.122,0.104,0.0,227.81,-1.0,-2.56,243,1,1,30.0
1782729576.667260,19:39:36.667,14574,148.722,29.71,1010.85,-0.117,-0.121,0.104,0.0,227.56,-1.0,-2.56,243,1,1,30.0
1782729576.667272,19:39:36.667,14575,148.732,29.71,1010.85,-0.117,-0.12,0.104,0.0,227.44,-1.0,-2.56,243,1,1,30.0
1782729576.667283,19:39:36.667,14576,148.742,29.71,1010.85,-0.117,-0.119,0.104,0.0,227.25,-1.0,-2.56,243,1,1,30.0
1782729576.667294,19:39:36.667,14577,148.752,29.71,1010.85,-0.117,-0.118,0.078,0.0,227.13,-1.0,-2.56,243,0,1,30.0
1782729576.667305,19:39:36.667,14578,148.762,29.71,1010.85,-0.117,-0.117,0.076,-0.181,227.0,-1.0,-2.56,243,0,1,30.0
