host_unix,host_time,seq,up_ms,temp_c,press_hpa,alt_baro_m,alt_fused_m,vel_m_s,az_m_s2,heading,roll,pitch,calib,vstate,elev,servo_deg
1782723830.046163,18:03:50.046,761,10.504,24.91,1011.8,0.005,0.009,0.205,0.0,0.0,0.0,0.0,255,1,1,30.0
1782723830.046335,18:03:50.046,762,10.514,24.91,1011.8,0.005,0.011,0.205,0.0,0.0,0.0,0.0,255,1,1,30.0
1782723830.046347,18:03:50.046,763,10.524,24.91,1011.8,0.005,0.014,0.205,0.0,0.0,0.0,0.0,255,1,1,30.0
1782723830.046354,18:03:50.046,764,10.534,24.91,1011.8,0.005,0.016,0.205,0.0,0.0,0.0,0.0,255,1,1,30.0
1782723830.046360,18:03:50.046,765,10.544,24.91,1011.8,0.005,0.015,0.154,0.0,0.0,0.0,0.0,255,1,1,30.0
1782723830.046365,18:03:50.046,766,10.554,24.91,1011.8,0.005,0.017,0.154,0.0,0.0,0.0,0.0,255,1,1,30.0
1782723830.148585,18:03:50.148,767,10.564,24.91,1011.8,0.005,0.018,0.154,0.0,0.0,0.0,0.0,255,1,1,30.0
1782723830.148613,18:03:50.148,768,10.574,24.91,1011.8,0.005,0.02,0.154,0.0,0.0,0.0,0.0,255,1,1,30.0
1782723830.148622,18:03:50.148,769,10.584,24.91,1011.8,0.005,0.021,0.154,0.0,0.0,0.0,0.0,255,1,1,30.0
1782723830.148631,18:03:50.148,770,10.594,24.92,1011.8,0.005,0.019,0.115,0.0,0.0,0.0,0.0,255,1,1,30.0
1782723830.148637,18:03:50.148,771,10.604,24.92,1011.8,0.005,0.021,0.115,0.0,0.0,0.0,0.0,255,1,1,30.0
1782723830.148642,18:03:50.148,772,10.614,24.92,1011.8,0.005,0.022,0.115,0.0,0.0,0.0,0.0,255,1,1,30.0
1782723830.148961,18:03:50.148,773,10.624,24.92,1011.8,0.005,0.023,0.115,0.0,0.0,0.0,0.0,255,1,1,30.0
1782723830.148970,18:03:50.148,774,10.634,24.92,1011.8,0.005,0.024,0.115,0.0,0.0,0.0,0.0,255,1,1,30.0
1782723830.148976,18:03:50.148,775,10.644,24.92,1011.8,0.005,0.021,0.087,0.0,0.0,0.0,0.0,255,0,1,30.0
1782723830.148981,18:03:50.148,776,10.654,24.92,1011.8,0.005,0.022,0.087,0.0,0.0,0.0,0.0,255,0,1,30.0
1782723830.148986,18:03:50.148,777,10.664,24.92,1011.8,0.005,0.023,0.087,0.0,0.0,0.0,0.0,255,0,1,30.0
1782723830.149185,18:03:50.149,778,10.674,24.92,1011.8,0.005,0.024,0.087,0.0,0.0,0.0,0.0,255,0,1,30.0
1782723830.149193,18:03:50.149,779,10.684,24.92,1011.8,0.005,0.021,0.065,0.0,0.0,0.0,0.0,255,0,1,30.0
1782723830.149198,18:03:50.149,780,10.694,24.92,1011.8,0.005,0.022,0.065,0.0,0.0,0.0,0.0,255,0,1,30.0
1782723830.149203,18:03:50.149,781,10.704,24.92,1011.8,0.005,0.022,0.065,0.0,0.0,0.0,0.0,255,0,1,30.0
1782723830.149208,18:03:50.149,782,10.714,24.92,1011.8,0.005,0.023,0.065,0.0,0.0,0.0,0.0,255,0,1,30.0
1782723830.251386,18:03:50.251,783,10.724,24.92,1011.8,0.005,0.023,0.065,0.0,0.0,0.0,0.0,255,0,1,30.0
1782723830.251411,18:03:50.251,784,10.734,24.92,1011.8,0.005,0.02,0.049,0.0,0.0,0.0,0.0,255,0,1,30.0
1782723830.251417,18:03:50.251,785,10.744,24.92,1011.8,0.005,0.021,0.049,0.0,0.0,0.0,0.0,255,0,1,30.0
1782723830.251423,18:03:50.251,786,10.754,24.92,1011.8,0.005,0.021,0.049,0.0,0.0,0.0,0.0,255,0,1,30.0
1782723830.251428,18:03:50.251,787,10.764,24.92,1011.8,0.005,0.022,0.049,0.0,0.0,0.0,0.0,255,0,1,30.0
1782723830.251433,18:03:50.251,788,10.774,24.92,1011.8,0.005,0.022,0.049,0.0,0.0,0.0,0.0,255,0,1,30.0
1782723830.353735,18:03:50.353,789,10.784,24.92,1011.8,0.005,0.019,0.037,0.0,0.0,0.0,0.0,255,0,1,30.0
1782723830.353768,18:03:50.353,790,10.794,24.92,1011.8,0.005,0.02,0.037,0.0,0.0,0.0,0.0,255,0,1,30.0
1782723830.353775,18:03:50.353,791,10.804,24.92,1011.8,0.005,0.02,0.037,0.0,0.0,0.0,0.0,255,0,1,30.0
1782723830.353781,18:03:50.353,792,10.814,24.92,1011.8,0.005,0.02,0.037,0.0,0.0,0.0,0.0,255,0,1,30.0
1782723830.353787,18:03:50.353,793,10.824,24.92,1011.8,0.005,0.021,0.037,0.0,0.0,0.0,0.0,255,0,1,30.0
1782723830.354102,18:03:50.354,794,10.834,24.92,1011.81,-0.189,-0.021,-0.941,0.0,0.0,0.0,0.0,255,2,1,30.0
1782723830.354110,18:03:50.354,795,10.844,24.92,1011.81,-0.189,-0.03,-0.941,0.0,0.0,0.0,0.0,255,2,1,30.0
1782723830.354116,18:03:50.354,796,10.854,24.92,1011.81,-0.189,-0.039,-0.941,0.0,0.0,0.0,0.0,255,2,1,30.0
1782723830.354121,18:03:50.354,797,10.864,24.92,1011.81,-0.189,-0.049,-0.941,0.0,0.0,0.0,0.0,255,2,1,30.0
1782723830.354126,18:03:50.354,798,10.874,24.92,1011.81,-0.189,-0.058,-0.941,0.0,0.0,0.0,0.0,255,2,1,30.0
1782723830.354131,18:03:50.354,799,10.884,24.92,1011.8,0.005,-0.053,0.269,0.0,0.0,0.0,0.0,255,0,1,30.0
1782723830.456341,18:03:50.456,800,10.894,24.92,1011.8,0.005,-0.05,0.269,0.0,0.0,0.0,0.0,255,0,1,30.0
1782723830.456366,18:03:50.456,801,10.904,24.92,1011.8,0.005,-0.048,0.269,0.0,0.0,0.0,0.0,255,0,1,30.0
1782723830.456375,18:03:50.456,802,10.914,24.92,1011.8,0.005,-0.045,0.269,0.0,0.0,0.0,0.0,255,0,1,30.0
1782723830.456381,18:03:50.456,803,10.924,24.92,1011.8,0.005,-0.033,0.202,0.0,0.0,0.0,0.0,255,0,1,30.0
1782723830.456386,18:03:50.456,804,10.934,24.92,1011.8,0.005,-0.031,0.202,0.0,0.0,0.0,0.0,255,0,1,30.0
1782723830.456726,18:03:50.456,805,10.944,24.92,1011.8,0.005,-0.029,0.202,0.0,0.0,0.0,0.0,255,0,1,30.0
1782723830.456734,18:03:50.456,806,10.954,24.92,1011.8,0.005,-0.027,0.202,0.0,0.0,0.0,0.0,255,0,1,30.0
1782723830.456739,18:03:50.456,807,10.964,24.92,1011.8,0.005,-0.025,0.202,0.0,0.0,0.0,0.0,255,0,1,30.0
1782723830.456745,18:03:50.456,808,10.974,24.92,1011.8,0.005,-0.017,0.151,0.0,0.0,0.0,0.0,255,0,1,30.0
1782723830.456751,18:03:50.456,809,10.984,24.92,1011.8,0.005,-0.015,0.151,0.0,0.0,0.0,0.0,255,0,1,30.0
1782723830.456757,18:03:50.456,810,10.994,24.92,1011.8,0.005,-0.014,0.151,0.0,0.0,0.0,0.0,255,0,1,30.0
1782723830.558837,18:03:50.558,811,11.004,24.92,1011.8,0.005,-0.012,0.151,0.0,0.0,0.0,0.0,255,0,1,30.0
1782723830.558859,18:03:50.558,812,11.014,24.92,1011.8,0.005,-0.011,0.151,0.0,0.0,0.0,0.0,255,0,1,30.0
1782723830.558865,18:03:50.558,813,11.024,24.92,1011.8,0.005,-0.006,0.114,0.0,0.0,0.0,0.0,255,0,1,30.0
1782723830.558871,18:03:50.558,814,11.034,24.92,1011.8,0.005,-0.005,0.114,0.0,0.0,0.0,0.0,255,0,1,30.0
1782723830.558876,18:03:50.558,815,11.044,24.92,1011.8,0.005,-0.004,0.114,0.0,0.0,0.0,0.0,255,0,1,30.0
1782723830.559228,18:03:50.559,816,11.054,24.92,1011.8,0.005,-0.003,0.114,0.0,0.0,0.0,0.0,255,0,1,30.0
1782723830.559236,18:03:50.559,817,11.064,24.92,1011.8,0.005,-0.002,0.114,0.0,0.0,0.0,0.0,255,0,1,30.0
1782723830.559241,18:03:50.559,818,11.074,24.92,1011.8,0.005,0.0,0.085,0.0,0.0,0.0,0.0,255,0,1,30.0
1782723830.559247,18:03:50.559,819,11.084,24.92,1011.8,0.005,0.001,0.085,0.0,0.0,0.0,0.0,255,0,1,30.0
1782723830.559252,18:03:50.559,820,11.094,24.92,1011.8,0.005,0.002,0.085,0.0,0.0,0.0,0.0,255,0,1,30.0
1782723830.660569,18:03:50.660,821,11.104,24.92,1011.8,0.005,0.003,0.085,0.0,0.0,0.0,0.0,255,0,1,30.0
1782723830.660590,18:03:50.660,822,11.114,24.92,1011.8,0.005,0.004,0.064,0.0,0.0,0.0,0.0,255,0,1,30.0
1782723830.660596,18:03:50.660,823,11.128,24.92,1011.8,0.005,0.005,0.064,0.0,0.0,0.0,0.0,255,0,1,30.0
1782723830.660601,18:03:50.660,824,11.134,24.92,1011.8,0.005,0.005,0.064,0.0,0.0,0.0,0.0,255,0,1,30.0
1782723830.660606,18:03:50.660,825,11.144,24.92,1011.8,0.005,0.006,0.064,0.0,0.0,0.0,0.0,255,0,1,30.0
1782723830.660911,18:03:50.660,826,11.154,24.92,1011.8,0.005,0.007,0.064,0.0,0.0,0.0,0.0,255,0,1,30.0
1782723830.660919,18:03:50.660,827,11.164,24.92,1011.8,0.005,0.007,0.048,0.0,0.0,0.0,0.0,255,0,1,30.0
1782723830.660924,18:03:50.660,828,11.174,24.92,1011.8,0.005,0.008,0.048,0.0,0.0,0.0,0.0,255,0,1,30.0
1782723830.660929,18:03:50.660,829,11.184,24.92,1011.8,0.005,0.008,0.048,0.0,0.0,0.0,0.0,255,0,1,30.0
1782723830.660934,18:03:50.660,830,11.194,24.92,1011.8,0.005,0.008,0.048,0.0,0.0,0.0,0.0,255,0,1,30.0
1782723830.660939,18:03:50.660,831,11.204,24.92,1011.8,0.005,0.009,0.048,0.0,0.0,0.0,0.0,255,0,1,30.0
1782723830.763204,18:03:50.763,832,11.214,24.92,1011.8,0.005,0.009,0.036,0.0,0.0,0.0,0.0,255,0,1,30.0
1782723830.763224,18:03:50.763,833,11.224,24.92,1011.8,0.005,0.009,0.036,0.0,0.0,0.0,0.0,255,0,1,30.0
1782723830.763230,18:03:50.763,834,11.234,24.92,1011.8,0.005,0.009,0.036,0.0,0.0,0.0,0.0,255,0,1,30.0
1782723830.763236,18:03:50.763,835,11.244,24.92,1011.8,0.005,0.01,0.036,0.0,0.0,0.0,0.0,255,0,1,30.0
1782723830.763241,18:03:50.763,836,11.254,24.92,1011.8,0.005,0.01,0.036,0.0,0.0,0.0,0.0,255,0,1,30.0
1782723830.763246,18:03:50.763,837,11.264,24.92,1011.8,0.005,0.009,0.027,0.0,0.0,0.0,0.0,255,0,1,30.0
1782723830.763546,18:03:50.763,838,11.274,24.92,1011.8,0.005,0.01,0.027,0.0,0.0,0.0,0.0,255,0,1,30.0
1782723830.763554,18:03:50.763,839,11.284,24.92,1011.8,0.005,0.01,0.027,0.0,0.0,0.0,0.0,255,0,1,30.0
1782723830.763559,18:03:50.763,840,11.294,24.92,1011.8,0.005,0.01,0.027,0.0,0.0,0.0,0.0,255,0,1,30.0
1782723830.763564,18:03:50.763,841,11.304,24.92,1011.8,0.005,0.011,0.027,0.0,0.0,0.0,0.0,255,0,1,30.0
1782723830.763569,18:03:50.763,842,11.314,24.92,1011.8,0.005,0.01,0.02,0.0,0.0,0.0,0.0,255,0,1,30.0
1782723830.865853,18:03:50.865,843,11.324,24.92,1011.8,0.005,0.01,0.02,0.0,0.0,0.0,0.0,255,0,1,30.0
1782723830.865879,18:03:50.865,844,11.334,24.92,1011.8,0.005,0.01,0.02,0.0,0.0,0.0,0.0,255,0,1,30.0
1782723830.865887,18:03:50.865,845,11.344,24.92,1011.8,0.005,0.01,0.02,0.0,0.0,0.0,0.0,255,0,1,30.0
1782723830.865893,18:03:50.865,846,11.354,24.92,1011.8,0.005,0.01,0.015,0.0,0.0,0.0,0.0,255,0,1,30.0
1782723830.865898,18:03:50.865,847,11.364,24.92,1011.8,0.005,0.01,0.015,0.0,0.0,0.0,0.0,255,0,1,30.0
1782723830.865903,18:03:50.865,848,11.374,24.92,1011.8,0.005,0.01,0.015,0.0,0.0,0.0,0.0,255,0,1,30.0
1782723830.866219,18:03:50.866,849,11.384,24.92,1011.8,0.005,0.01,0.015,0.0,0.0,0.0,0.0,255,0,1,30.0
1782723830.866227,18:03:50.866,850,11.394,24.92,1011.8,0.005,0.01,0.015,0.0,0.0,0.0,0.0,255,0,1,30.0
1782723830.866232,18:03:50.866,851,11.404,24.92,1011.8,0.005,0.009,0.011,0.0,0.0,0.0,0.0,255,0,1,30.0
1782723830.866238,18:03:50.866,852,11.414,24.92,1011.8,0.005,0.009,0.011,0.0,0.0,0.0,0.0,255,0,1,30.0
1782723830.866242,18:03:50.866,853,11.424,24.92,1011.8,0.005,0.01,0.011,0.0,0.0,0.0,0.0,255,0,1,30.0
1782723830.968837,18:03:50.968,854,11.434,24.92,1011.8,0.005,0.01,0.011,0.0,0.0,0.0,0.0,255,0,1,30.0
1782723830.968893,18:03:50.968,855,11.444,24.92,1011.8,0.005,0.01,0.011,0.0,0.0,0.0,0.0,255,0,1,30.0
1782723830.968911,18:03:50.968,856,11.454,24.92,1011.8,0.005,0.009,0.009,0.0,0.0,0.0,0.0,255,0,1,30.0
1782723830.968925,18:03:50.968,857,11.464,24.92,1011.8,0.005,0.009,0.009,0.0,0.0,0.0,0.0,255,0,1,30.0
1782723830.968938,18:03:50.968,858,11.474,24.92,1011.8,0.005,0.009,0.009,0.0,0.0,0.0,0.0,255,0,1,30.0
1782723830.968951,18:03:50.968,859,11.484,24.92,1011.8,0.005,0.009,0.009,0.0,0.0,0.0,0.0,255,0,1,30.0
1782723831.073758,18:03:51.073,860,11.494,24.92,1011.8,0.005,0.009,0.009,0.0,0.0,0.0,0.0,255,0,1,30.0
1782723831.074216,18:03:51.074,861,11.504,24.92,1011.8,0.005,0.009,0.006,0.0,0.0,0.0,0.0,255,0,1,30.0
1782723831.074245,18:03:51.074,862,11.514,24.92,1011.8,0.005,0.009,0.006,0.0,0.0,0.0,0.0,255,0,1,30.0
1782723831.074262,18:03:51.074,863,11.524,24.92,1011.8,0.005,0.009,0.006,0.0,0.0,0.0,0.0,255,0,1,30.0
1782723831.074278,18:03:51.074,864,11.534,24.92,1011.8,0.005,0.009,0.006,0.0,0.13,0.0,0.0,255,0,1,30.0
1782723831.074294,18:03:51.074,865,11.544,24.92,1011.8,0.005,0.008,0.005,0.0,0.38,0.0,0.0,255,0,1,30.0
1782723831.075135,18:03:51.075,866,11.554,24.92,1011.8,0.005,0.008,0.005,0.0,0.75,0.0,0.0,255,0,1,30.0
1782723831.075157,18:03:51.075,867,11.564,24.92,1011.8,0.005,0.008,0.005,0.0,0.75,0.0,0.0,255,0,1,30.0
1782723831.075174,18:03:51.075,868,11.574,24.92,1011.8,0.005,0.008,0.005,0.0,0.75,0.0,0.0,255,0,1,30.0
1782723831.075189,18:03:51.075,869,11.584,24.92,1011.8,0.005,0.008,0.005,0.0,0.75,0.0,0.0,255,0,1,30.0
1782723831.075205,18:03:51.075,870,11.594,24.92,1011.8,0.005,0.008,0.004,0.0,0.63,0.0,0.0,255,0,1,30.0
1782723831.075220,18:03:51.075,871,11.604,24.92,1011.8,0.005,0.008,0.004,0.0,0.63,0.0,0.0,255,0,1,30.0
1782723831.179802,18:03:51.179,872,11.614,24.92,1011.8,0.005,0.008,0.004,0.0,0.63,0.0,0.0,255,0,1,30.0
1782723831.179860,18:03:51.179,873,11.624,24.92,1011.8,0.005,0.008,0.004,0.0,0.44,0.0,0.0,255,0,1,30.0
1782723831.179881,18:03:51.179,874,11.634,24.92,1011.8,0.005,0.008,0.004,0.0,0.44,0.0,0.0,255,0,1,30.0
1782723831.179899,18:03:51.179,875,11.644,24.92,1011.8,0.005,0.008,0.003,0.0,0.44,0.0,0.0,255,0,1,30.0
1782723831.179915,18:03:51.179,876,11.654,24.92,1011.8,0.005,0.008,0.003,0.0,0.44,0.0,0.0,255,0,1,30.0
1782723831.180985,18:03:51.180,877,11.664,24.92,1011.8,0.005,0.008,0.003,0.0,0.44,0.0,0.0,255,0,1,30.0
1782723831.181020,18:03:51.181,878,11.674,24.92,1011.8,0.005,0.008,0.003,0.0,0.44,0.0,0.0,255,0,1,30.0
1782723831.181037,18:03:51.181,879,11.684,24.92,1011.8,0.005,0.008,0.003,0.0,0.31,0.0,0.0,255,0,1,30.0
1782723831.181054,18:03:51.181,880,11.694,24.92,1011.8,0.005,0.007,0.002,0.0,0.31,0.0,0.0,255,0,1,30.0
1782723831.181069,18:03:51.181,881,11.704,24.92,1011.8,0.005,0.007,0.002,0.0,0.31,0.0,0.0,255,0,1,30.0
1782723831.181084,18:03:51.181,882,11.714,24.92,1011.8,0.005,0.007,0.002,0.0,0.31,0.0,0.0,255,0,1,30.0
1782723831.285349,18:03:51.285,883,11.724,24.92,1011.8,0.005,0.007,0.002,0.0,0.31,0.0,0.0,255,0,1,30.0
1782723831.285398,18:03:51.285,884,11.734,24.92,1011.8,0.005,0.007,0.002,0.0,0.75,0.0,0.0,255,0,1,30.0
1782723831.285415,18:03:51.285,885,11.744,24.92,1011.8,0.005,0.007,0.002,0.0,0.88,0.0,0.0,255,0,1,30.0
1782723831.285428,18:03:51.285,886,11.754,24.92,1011.8,0.005,0.007,0.002,0.0,1.0,0.0,0.0,255,0,1,30.0
1782723831.285441,18:03:51.285,887,11.764,24.92,1011.8,0.005,0.007,0.002,0.0,1.19,0.0,0.0,255,0,1,30.0
1782723831.285452,18:03:51.285,888,11.774,24.92,1011.8,0.005,0.007,0.002,0.0,1.38,0.0,0.0,255,0,1,30.0
1782723831.286306,18:03:51.286,889,11.784,24.92,1011.8,0.005,0.007,0.001,0.0,1.63,0.0,0.0,255,0,1,30.0
1782723831.286324,18:03:51.286,890,11.794,24.92,1011.8,0.005,0.007,0.001,0.0,1.63,0.0,0.0,255,0,1,30.0
1782723831.286336,18:03:51.286,891,11.804,24.92,1011.8,0.005,0.007,0.001,0.0,2.19,0.0,0.0,255,0,1,30.0
1782723831.286348,18:03:51.286,892,11.814,24.92,1011.8,0.005,0.007,0.001,0.0,2.5,0.0,0.0,255,0,1,30.0
1782723831.286360,18:03:51.286,893,11.824,24.92,1011.8,0.005,0.007,0.001,0.0,2.88,0.0,0.0,255,0,1,30.0
1782723831.286373,18:03:51.286,894,11.834,24.92,1011.8,0.005,0.006,0.001,0.0,2.88,0.0,0.0,255,0,1,30.0
1782723831.389265,18:03:51.389,895,11.844,24.92,1011.8,0.005,0.007,0.001,0.0,2.88,0.0,0.0,255,0,1,30.0
1782723831.389323,18:03:51.389,896,11.854,24.92,1011.8,0.005,0.007,0.001,0.0,4.13,0.0,0.0,255,0,1,30.0
1782723831.389349,18:03:51.389,897,11.864,24.92,1011.8,0.005,0.007,0.001,0.0,4.5,0.0,0.0,255,0,1,30.0
1782723831.389364,18:03:51.389,898,11.874,24.92,1011.8,0.005,0.007,0.001,0.0,4.5,0.0,0.0,255,0,1,30.0
1782723831.389377,18:03:51.389,899,11.884,24.92,1011.8,0.005,0.006,0.001,0.0,5.13,0.0,0.0,255,0,1,30.0
1782723831.389390,18:03:51.389,900,11.894,24.92,1011.8,0.005,0.006,0.001,0.0,5.38,0.0,0.0,255,0,1,30.0
1782723831.390289,18:03:51.390,901,11.904,24.92,1011.8,0.005,0.006,0.001,0.0,5.38,0.0,0.0,255,0,1,30.0
1782723831.390308,18:03:51.390,902,11.914,24.92,1011.8,0.005,0.006,0.001,0.0,6.06,0.0,0.0,255,0,1,30.0
1782723831.390322,18:03:51.390,903,11.924,24.92,1011.8,0.005,0.006,0.0,0.0,6.44,0.0,0.0,255,0,1,30.0
1782723831.390336,18:03:51.390,904,11.934,24.92,1011.8,0.005,0.006,0.0,0.0,6.88,0.0,0.0,255,0,1,30.0
1782723831.390349,18:03:51.390,905,11.944,24.92,1011.8,0.005,0.006,0.0,0.0,7.38,0.0,0.0,255,0,1,30.0
1782723831.495086,18:03:51.495,906,11.954,24.92,1011.8,0.005,0.006,0.0,0.0,7.81,0.0,0.0,255,0,1,30.0
1782723831.495142,18:03:51.495,907,11.964,24.92,1011.8,0.005,0.006,0.0,0.0,8.25,0.0,0.0,255,0,1,30.0
1782723831.495164,18:03:51.495,908,11.974,24.92,1011.79,0.093,0.024,0.438,0.0,8.63,0.0,0.0,255,1,1,30.0
1782723831.495182,18:03:51.495,909,11.984,24.92,1011.79,0.093,0.028,0.438,0.0,8.94,0.0,0.0,255,1,1,30.0
1782723831.495199,18:03:51.495,910,11.994,24.92,1011.79,0.093,0.032,0.438,0.0,9.13,0.0,0.0,255,1,1,30.0
1782723831.495287,18:03:51.495,911,12.004,24.92,1011.79,0.093,0.037,0.438,0.0,9.31,0.0,0.0,255,1,1,30.0
1782723831.496284,18:03:51.496,912,12.014,24.92,1011.79,0.093,0.041,0.438,0.0,9.31,0.0,0.0,255,1,1,30.0
1782723831.496314,18:03:51.496,913,12.024,24.92,1011.8,0.005,0.037,-0.109,0.0,9.5,0.0,0.0,255,0,1,30.0
1782723831.496332,18:03:51.496,914,12.034,24.92,1011.8,0.005,0.036,-0.109,0.0,9.5,0.0,0.0,255,0,1,30.0
1782723831.496348,18:03:51.496,915,12.044,24.92,1011.8,0.005,0.035,-0.109,0.0,9.69,0.0,0.0,255,0,1,30.0
1782723831.496376,18:03:51.496,916,12.054,24.92,1011.8,0.005,0.034,-0.109,0.0,9.81,0.0,0.0,255,0,1,30.0
1782723831.496393,18:03:51.496,917,12.064,24.92,1011.8,0.005,0.033,-0.109,0.0,10.0,-8.25,34.81,255,0,1,30.0
1782723831.601332,18:03:51.601,918,12.074,24.92,1011.8,0.005,0.027,-0.082,0.0,10.13,-8.5,35.31,255,0,1,30.0
1782723831.601361,18:03:51.601,919,12.084,24.92,1011.8,0.005,0.026,-0.082,0.0,10.31,-8.69,35.75,255,0,1,30.0
1782723831.601369,18:03:51.601,920,12.094,24.92,1011.8,0.005,0.025,-0.082,0.0,10.5,-8.88,36.13,255,0,1,30.0
1782723831.601376,18:03:51.601,921,12.104,24.92,1011.8,0.005,0.024,-0.082,0.0,10.5,-8.88,36.13,255,0,1,30.0
1782723831.601381,18:03:51.601,922,12.114,24.92,1011.8,0.005,0.023,-0.082,0.0,10.69,-9.19,37.0,255,0,1,30.0
1782723831.704024,18:03:51.704,923,12.128,24.92,1011.8,0.005,0.019,-0.061,0.0,10.81,-9.31,37.63,255,0,1,30.0
1782723831.704047,18:03:51.704,924,12.134,24.92,1011.8,0.005,0.019,-0.061,0.0,10.81,-9.31,37.63,255,0,1,30.0
1782723831.704055,18:03:51.704,925,12.144,24.92,1011.8,0.005,0.018,-0.061,0.0,11.13,-9.69,39.25,255,0,1,30.0
1782723831.704060,18:03:51.704,926,12.154,24.92,1011.8,0.005,0.017,-0.061,0.0,11.31,-9.94,40.13,255,0,1,30.0
1782723831.704066,18:03:51.704,927,12.164,24.92,1011.8,0.005,0.017,-0.061,0.0,11.5,-10.13,41.0,255,0,1,30.0
1782723831.704072,18:03:51.704,928,12.174,24.92,1011.8,0.005,0.014,-0.046,0.0,11.69,-10.13,42.0,255,0,1,30.0
1782723831.704390,18:03:51.704,929,12.184,24.92,1011.8,0.005,0.014,-0.046,0.0,11.94,-10.25,42.94,255,0,1,30.0
1782723831.704399,18:03:51.704,930,12.194,24.92,1011.8,0.005,0.013,-0.046,0.0,11.94,-10.25,42.94,255,0,1,30.0
1782723831.704405,18:03:51.704,931,12.204,24.92,1011.8,0.005,0.013,-0.046,0.0,11.94,-10.25,42.94,255,0,1,30.0
1782723831.704410,18:03:51.704,932,12.214,24.92,1011.8,0.005,0.012,-0.046,0.0,12.69,-9.81,46.44,255,0,1,30.0
1782723831.704415,18:03:51.704,933,12.224,24.92,1011.8,0.005,0.01,-0.034,0.0,12.94,-9.63,48.06,255,0,1,30.0
1782723831.704421,18:03:51.704,934,12.234,24.92,1011.8,0.005,0.01,-0.034,0.0,13.19,-9.5,49.56,255,0,1,30.0
1782723831.806878,18:03:51.806,935,12.244,24.92,1011.8,0.005,0.01,-0.034,0.0,13.19,-9.5,49.56,255,0,1,30.0
1782723831.806901,18:03:51.806,936,12.254,24.92,1011.8,0.005,0.009,-0.034,0.0,13.19,-9.5,49.56,255,0,1,30.0
1782723831.806908,18:03:51.806,937,12.264,24.92,1011.8,0.005,0.008,-0.026,0.0,13.94,-8.88,53.25,255,0,1,30.0
1782723831.806914,18:03:51.806,938,12.274,24.92,1011.8,0.005,0.008,-0.026,0.0,14.31,-8.63,54.06,255,0,1,30.0
1782723831.806920,18:03:51.806,939,12.284,24.92,1011.8,0.005,0.008,-0.026,0.0,14.31,-8.63,54.06,255,0,1,30.0
1782723831.807230,18:03:51.807,940,12.294,24.92,1011.8,0.005,0.008,-0.026,0.0,14.81,-8.31,55.38,255,0,1,30.0
1782723831.807238,18:03:51.807,941,12.304,24.92,1011.8,0.005,0.007,-0.026,0.0,14.94,-8.31,55.94,255,0,1,30.0
1782723831.807244,18:03:51.807,942,12.314,24.92,1011.8,0.005,0.007,-0.019,0.0,14.94,-8.31,56.5,255,0,1,30.0
1782723831.807249,18:03:51.807,943,12.324,24.92,1011.8,0.005,0.007,-0.019,0.0,14.94,-8.31,57.0,255,0,1,30.0
1782723831.807255,18:03:51.807,944,12.334,24.92,1011.8,0.005,0.006,-0.019,0.0,14.94,-8.31,57.38,255,0,1,30.0
1782723831.807260,18:03:51.807,945,12.344,24.92,1011.8,0.005,0.006,-0.019,0.0,14.94,-8.31,57.38,255,0,1,30.0
1782723831.908829,18:03:51.908,946,12.354,24.92,1011.8,0.005,0.006,-0.019,0.0,14.81,-8.31,57.94,255,0,1,30.0
1782723831.908849,18:03:51.908,947,12.364,24.92,1011.8,0.005,0.006,-0.015,0.0,14.81,-8.13,57.94,255,0,1,30.0
1782723831.908857,18:03:51.908,948,12.374,24.92,1011.8,0.005,0.006,-0.015,0.0,14.63,-8.13,58.13,255,0,1,30.0
1782723831.908863,18:03:51.908,949,12.384,24.92,1011.8,0.005,0.005,-0.015,0.0,14.63,-0.06,-0.06,255,0,1,30.0
1782723831.908869,18:03:51.908,950,12.394,24.92,1011.8,0.005,0.005,-0.015,0.0,14.63,-0.06,-0.06,255,0,1,30.0
1782723831.909160,18:03:51.909,951,12.404,24.92,1011.8,0.005,0.005,-0.015,0.0,14.63,-0.06,-0.06,255,0,1,30.0
1782723831.909168,18:03:51.909,952,12.414,24.92,1011.8,0.005,0.005,-0.011,0.0,14.44,-0.06,-0.06,255,0,1,30.0
1782723831.909174,18:03:51.909,953,12.424,24.92,1011.8,0.005,0.005,-0.011,0.0,14.44,-0.06,-0.06,255,0,1,30.0
1782723831.909180,18:03:51.909,954,12.434,24.92,1011.8,0.005,0.005,-0.011,0.0,14.44,-0.06,-0.06,255,0,1,30.0
1782723831.909187,18:03:51.909,955,12.444,24.92,1011.8,0.005,0.005,-0.011,0.0,14.44,-0.06,-0.06,255,0,1,30.0
1782723831.909193,18:03:51.909,956,12.454,24.92,1011.79,0.093,0.022,0.539,0.0,14.44,-0.06,-0.06,255,1,1,30.0
1782723832.012857,18:03:52.012,957,12.464,24.92,1011.79,0.093,0.028,0.539,0.0,14.81,-0.06,-0.06,255,1,1,30.0
1782723832.012878,18:03:52.012,958,12.474,24.92,1011.79,0.093,0.033,0.539,0.0,14.81,-0.06,-0.06,255,1,1,30.0
1782723832.012884,18:03:52.012,959,12.484,24.92,1011.79,0.093,0.038,0.539,0.0,14.81,-0.06,-0.06,255,1,1,30.0
1782723832.012890,18:03:52.012,960,12.494,24.92,1011.79,0.093,0.044,0.539,0.0,14.81,-0.06,-0.06,255,1,1,30.0
1782723832.012932,18:03:52.012,961,12.504,24.92,1011.79,0.093,0.058,0.404,0.0,14.81,-0.06,-0.06,255,1,1,30.0
1782723832.012939,18:03:52.012,962,12.514,24.92,1011.79,0.093,0.062,0.404,0.0,14.69,-0.06,-0.06,255,1,1,30.0
1782723832.013218,18:03:52.013,963,12.524,24.92,1011.79,0.093,0.066,0.404,0.0,14.5,-0.06,-0.06,255,1,1,30.0
1782723832.013225,18:03:52.013,964,12.534,24.92,1011.79,0.093,0.07,0.404,0.0,14.5,-0.06,-0.06,255,1,1,30.0
1782723832.013231,18:03:52.013,965,12.544,24.92,1011.79,0.093,0.074,0.404,0.0,14.5,-0.06,-0.06,255,1,1,30.0
1782723832.013236,18:03:52.013,966,12.554,24.92,1011.79,0.093,0.081,0.303,0.0,14.5,-0.06,-0.06,255,1,1,30.0
1782723832.013241,18:03:52.013,967,12.564,24.92,1011.79,0.093,0.084,0.303,0.0,14.5,-0.06,-0.06,255,1,1,30.0
1782723832.120098,18:03:52.120,968,12.574,24.92,1011.79,0.093,0.087,0.303,0.0,14.5,-0.06,-0.06,255,1,1,30.0
1782723832.120260,18:03:52.120,969,12.584,24.92,1011.79,0.093,0.09,0.303,0.0,14.69,-0.06,-0.06,255,1,1,30.0
1782723832.120271,18:03:52.120,970,12.594,24.92,1011.79,0.093,0.093,0.303,0.0,14.69,-0.06,-0.06,255,1,1,30.0
1782723832.120278,18:03:52.120,971,12.604,24.92,1011.79,0.093,0.096,0.228,0.0,14.69,-0.06,-0.06,255,1,1,30.0
1782723832.120284,18:03:52.120,972,12.614,24.92,1011.79,0.093,0.098,0.228,0.0,14.69,-0.06,-0.06,255,1,1,30.0
1782723832.120290,18:03:52.120,973,12.624,24.92,1011.79,0.093,0.1,0.228,0.0,14.69,-0.06,-0.06,255,1,1,30.0
1782723832.222818,18:03:52.222,974,12.634,24.92,1011.79,0.093,0.103,0.228,0.0,14.44,-0.06,-0.06,255,1,1,30.0
1782723832.222846,18:03:52.222,975,12.644,24.92,1011.79,0.093,0.102,0.171,0.0,14.44,-0.06,-0.06,255,1,1,30.0
1782723832.222854,18:03:52.222,976,12.654,24.92,1011.79,0.093,0.104,0.171,0.0,14.44,-0.06,-0.06,255,1,1,30.0
1782723832.222860,18:03:52.222,977,12.664,24.92,1011.79,0.093,0.106,0.171,0.0,14.44,-0.06,-0.06,255,1,1,30.0
1782723832.222866,18:03:52.222,978,12.674,24.92,1011.79,0.093,0.108,0.171,0.0,14.44,-0.06,-0.06,255,1,1,30.0
1782723832.222871,18:03:52.222,979,12.684,24.92,1011.79,0.093,0.109,0.171,0.0,14.44,-0.06,-0.06,255,1,1,30.0
1782723832.223166,18:03:52.223,980,12.701,24.92,1011.79,0.093,0.108,0.128,0.0,14.31,-0.06,-0.06,255,1,1,30.0
1782723832.223173,18:03:52.223,981,12.704,24.92,1011.79,0.093,0.109,0.128,0.0,14.31,-0.06,-0.06,255,1,1,30.0
1782723832.223179,18:03:52.223,982,12.714,24.92,1011.79,0.093,0.11,0.128,0.0,14.19,-0.06,-0.06,255,1,1,30.0
1782723832.223184,18:03:52.223,983,12.724,24.92,1011.79,0.093,0.111,0.128,0.0,14.06,-0.06,-0.06,255,1,1,30.0
1782723832.223190,18:03:52.223,984,12.734,24.92,1011.79,0.093,0.113,0.128,0.0,13.94,-0.06,-0.06,255,1,1,30.0
1782723832.325533,18:03:52.325,985,12.744,24.92,1011.79,0.093,0.114,0.128,0.0,13.81,-0.06,-0.06,255,1,1,30.0
1782723832.325559,18:03:52.325,986,12.754,24.92,1011.8,0.005,0.093,-0.319,0.0,13.81,-0.06,-0.06,255,0,1,30.0
1782723832.325566,18:03:52.325,987,12.764,24.92,1011.8,0.005,0.09,-0.319,0.0,13.63,-0.06,-0.06,255,2,1,30.0
1782723832.325572,18:03:52.325,988,12.774,24.92,1011.8,0.005,0.087,-0.319,0.0,13.63,-0.06,-0.06,255,2,1,30.0
1782723832.325578,18:03:52.325,989,12.784,24.92,1011.8,0.005,0.084,-0.319,0.0,13.63,-0.06,-0.06,255,2,1,30.0
1782723832.325583,18:03:52.325,990,12.794,24.92,1011.8,0.005,0.08,-0.319,0.0,13.63,-0.06,-0.06,255,2,1,30.0
1782723832.325892,18:03:52.325,991,12.804,24.92,1011.8,0.005,0.063,-0.24,0.0,13.63,-0.06,-0.06,255,2,1,30.0
1782723832.325902,18:03:52.325,992,12.814,24.92,1011.8,0.005,0.06,-0.24,0.0,13.63,-0.06,-0.06,255,2,1,30.0
1782723832.325908,18:03:52.325,993,12.824,24.92,1011.8,0.005,0.058,-0.24,0.0,13.63,-0.06,-0.06,255,2,1,30.0
1782723832.325913,18:03:52.325,994,12.834,24.92,1011.8,0.005,0.056,-0.24,0.0,13.63,-0.06,-0.06,255,2,1,30.0
1782723832.325919,18:03:52.325,995,12.844,24.92,1011.8,0.005,0.053,-0.24,0.0,13.5,-0.06,-0.06,255,2,1,30.0
1782723832.325924,18:03:52.325,996,12.854,24.92,1011.8,0.005,0.042,-0.18,0.0,13.5,-0.06,-0.06,255,2,1,30.0
1782723832.428512,18:03:52.428,997,12.864,24.92,1011.8,0.005,0.04,-0.18,0.0,13.38,-0.06,-0.06,255,2,1,30.0
1782723832.428537,18:03:52.428,998,12.874,24.92,1011.8,0.005,0.038,-0.18,0.0,13.25,-0.06,-0.06,255,2,1,30.0
1782723832.428545,18:03:52.428,999,12.884,24.92,1011.8,0.005,0.036,-0.18,0.0,13.25,-0.06,-0.06,255,2,1,30.0
1782723832.428552,18:03:52.428,1000,12.894,24.92,1011.79,0.093,0.046,0.407,0.0,13.13,-0.06,-0.06,255,0,1,30.0
1782723832.428558,18:03:52.428,1001,12.904,24.92,1011.79,0.093,0.05,0.407,0.0,13.13,-0.06,-0.06,255,1,1,30.0
1782723832.428563,18:03:52.428,1002,12.914,24.92,1011.79,0.093,0.054,0.407,0.0,12.94,-0.06,-0.06,255,1,1,30.0
1782723832.428843,18:03:52.428,1003,12.924,24.92,1011.79,0.093,0.058,0.407,0.0,12.94,-0.06,-0.06,255,1,1,30.0
1782723832.428851,18:03:52.428,1004,12.934,24.92,1011.79,0.093,0.062,0.407,0.0,12.94,-0.06,-0.06,255,1,1,30.0
1782723832.428856,18:03:52.428,1005,12.944,24.92,1011.79,0.093,0.072,0.305,0.0,12.94,-0.06,-0.06,255,1,1,30.0
1782723832.428862,18:03:52.428,1006,12.954,24.92,1011.79,0.093,0.075,0.305,0.0,12.94,-0.06,-0.06,255,1,1,30.0
1782723832.428867,18:03:52.428,1007,12.964,24.92,1011.79,0.093,0.078,0.305,0.0,12.94,-0.06,-0.06,255,1,1,30.0
1782723832.531481,18:03:52.531,1008,12.974,24.92,1011.79,0.093,0.081,0.305,0.0,12.94,-0.06,-0.06,255,1,1,30.0
1782723832.531507,18:03:52.531,1009,12.984,24.92,1011.79,0.093,0.084,0.305,0.0,12.94,-0.06,-0.06,255,1,1,30.0
1782723832.531515,18:03:52.531,1010,12.994,24.92,1011.79,0.093,0.088,0.229,0.0,12.94,-0.06,-0.06,255,1,1,30.0
1782723832.531545,18:03:52.531,1011,13.004,24.92,1011.79,0.093,0.09,0.229,0.0,12.94,-0.06,-0.06,255,1,1,30.0
1782723832.531553,18:03:52.531,1012,13.014,24.92,1011.79,0.093,0.093,0.229,0.0,12.81,-0.06,-0.06,255,1,1,30.0
1782723832.531909,18:03:52.531,1013,13.024,24.92,1011.79,0.093,0.095,0.229,0.0,12.63,-0.06,-0.06,255,1,1,30.0
1782723832.531917,18:03:52.531,1014,13.034,24.92,1011.79,0.093,0.097,0.229,0.0,12.5,-0.06,-0.06,255,1,1,30.0
1782723832.531923,18:03:52.531,1015,13.044,24.92,1011.79,0.093,0.098,0.172,0.0,12.38,-0.06,-0.06,255,1,1,30.0
1782723832.531929,18:03:52.531,1016,13.054,24.92,1011.79,0.093,0.1,0.172,0.0,12.25,-0.06,-0.06,255,1,1,30.0
1782723832.531934,18:03:52.531,1017,13.064,24.92,1011.79,0.093,0.102,0.172,0.0,12.25,-0.06,-0.06,255,1,1,30.0
1782723832.531940,18:03:52.531,1018,13.074,24.92,1011.79,0.093,0.103,0.172,0.0,12.06,-0.06,-0.06,255,1,1,30.0
1782723832.634633,18:03:52.634,1019,13.084,24.92,1011.79,0.093,0.105,0.172,0.0,11.94,-0.06,-0.06,255,1,1,30.0
1782723832.634663,18:03:52.634,1020,13.094,24.93,1011.79,0.093,0.104,0.129,0.0,11.94,-0.06,-0.06,255,1,1,30.0
1782723832.634671,18:03:52.634,1021,13.104,24.93,1011.79,0.093,0.105,0.129,0.0,11.69,-0.06,-0.06,255,1,1,30.0
1782723832.634678,18:03:52.634,1022,13.114,24.93,1011.79,0.093,0.107,0.129,0.0,11.56,-0.06,-0.06,255,1,1,30.0
1782723832.634686,18:03:52.634,1023,13.124,24.93,1011.79,0.093,0.108,0.129,0.0,11.44,-0.06,-0.06,255,1,1,30.0
1782723832.635114,18:03:52.635,1024,13.134,24.93,1011.79,0.093,0.106,0.097,0.0,11.44,-0.06,-0.06,255,0,1,30.0
1782723832.635126,18:03:52.635,1025,13.144,24.93,1011.79,0.093,0.107,0.097,0.0,11.44,-0.06,-0.06,255,0,1,30.0
1782723832.635133,18:03:52.635,1026,13.154,24.93,1011.79,0.093,0.108,0.097,0.0,11.31,-0.06,-0.06,255,0,1,30.0
1782723832.635138,18:03:52.635,1027,13.164,24.93,1011.79,0.093,0.109,0.097,0.0,11.31,-0.06,-0.06,255,0,1,30.0
1782723832.635144,18:03:52.635,1028,13.174,24.93,1011.79,0.093,0.11,0.097,0.0,11.19,-0.06,-0.06,255,0,1,30.0
1782723832.635149,18:03:52.635,1029,13.184,24.93,1011.79,0.093,0.107,0.072,0.0,11.19,-0.06,-0.06,255,0,1,30.0
1782723832.737837,18:03:52.737,1030,13.194,24.93,1011.79,0.093,0.108,0.072,0.0,11.0,-0.06,-0.06,255,0,1,30.0
1782723832.737867,18:03:52.737,1031,13.204,24.93,1011.79,0.093,0.109,0.072,0.0,10.81,-0.06,-0.06,255,0,1,30.0
1782723832.737874,18:03:52.737,1032,13.214,24.93,1011.79,0.093,0.109,0.072,0.0,10.69,-0.06,-0.06,255,0,1,30.0
1782723832.737881,18:03:52.737,1033,13.224,24.93,1011.79,0.093,0.11,0.072,0.0,10.69,-0.06,-0.06,255,0,1,30.0
1782723832.737886,18:03:52.737,1034,13.234,24.93,1011.79,0.093,0.107,0.054,0.0,10.38,-0.06,-0.06,255,0,1,30.0
1782723832.738192,18:03:52.738,1035,13.244,24.93,1011.79,0.093,0.108,0.054,0.0,10.38,-0.06,-0.06,255,0,1,30.0
1782723832.738201,18:03:52.738,1036,13.254,24.93,1011.79,0.093,0.108,0.054,0.0,10.19,-0.06,-0.06,255,0,1,30.0
1782723832.738207,18:03:52.738,1037,13.264,24.93,1011.79,0.093,0.109,0.054,0.0,10.06,-0.06,-0.06,255,0,1,30.0
1782723832.738214,18:03:52.738,1038,13.274,24.93,1011.79,0.093,0.109,0.054,0.0,9.94,-0.06,-0.06,255,0,1,30.0
1782723832.738219,18:03:52.738,1039,13.284,24.93,1011.79,0.093,0.107,0.041,0.0,9.81,-0.06,-0.06,255,0,1,30.0
1782723832.840549,18:03:52.840,1040,13.294,24.93,1011.79,0.093,0.107,0.041,0.0,9.69,-0.06,-0.06,255,0,1,30.0
1782723832.840573,18:03:52.840,1041,13.304,24.93,1011.79,0.093,0.107,0.041,0.0,9.56,-0.06,-0.06,255,0,1,30.0
1782723832.840580,18:03:52.840,1042,13.314,24.93,1011.79,0.093,0.108,0.041,0.0,9.56,-0.06,-0.06,255,0,1,30.0
1782723832.840586,18:03:52.840,1043,13.324,24.93,1011.79,0.093,0.105,0.031,0.0,9.25,-0.06,-0.06,255,0,1,30.0
1782723832.840592,18:03:52.840,1044,13.334,24.93,1011.79,0.093,0.105,0.031,0.0,9.25,-0.06,-0.06,255,0,1,30.0
1782723832.840890,18:03:52.840,1045,13.344,24.93,1011.79,0.093,0.106,0.031,0.0,9.06,-0.06,-0.06,255,0,1,30.0
1782723832.840899,18:03:52.840,1046,13.354,24.93,1011.79,0.093,0.106,0.031,0.0,9.06,-0.06,-0.06,255,0,1,30.0
1782723832.840904,18:03:52.840,1047,13.364,24.93,1011.79,0.093,0.106,0.031,0.0,8.94,-0.06,-0.06,255,0,1,30.0
1782723832.840910,18:03:52.840,1048,13.374,24.93,1011.79,0.093,0.104,0.023,0.0,8.94,-0.06,-0.06,255,0,1,30.0
1782723832.840915,18:03:52.840,1049,13.384,24.93,1011.79,0.093,0.104,0.023,0.0,8.75,-0.06,-0.06,255,0,1,30.0
1782723832.840920,18:03:52.840,1050,13.394,24.93,1011.79,0.093,0.104,0.023,0.0,8.75,-0.06,-0.06,255,0,1,30.0
1782723832.943427,18:03:52.943,1051,13.404,24.93,1011.79,0.093,0.105,0.023,0.0,8.75,-0.06,-0.06,255,0,1,30.0
1782723832.943450,18:03:52.943,1052,13.414,24.93,1011.79,0.093,0.105,0.023,0.0,8.75,-0.06,-0.06,255,0,1,30.0
1782723832.943458,18:03:52.943,1053,13.424,24.93,1011.79,0.093,0.103,0.017,0.0,8.75,-0.06,-0.06,255,0,1,30.0
1782723832.943463,18:03:52.943,1054,13.434,24.93,1011.79,0.093,0.103,0.017,0.0,8.75,-0.06,-0.06,255,0,1,30.0
1782723832.943469,18:03:52.943,1055,13.444,24.93,1011.79,0.093,0.103,0.017,0.0,8.63,-0.06,-0.06,255,0,1,30.0
1782723832.943474,18:03:52.943,1056,13.454,24.93,1011.79,0.093,0.103,0.017,0.0,8.63,-0.06,-0.06,255,0,1,30.0
1782723833.046132,18:03:53.046,1057,13.464,24.93,1011.79,0.093,0.103,0.017,0.0,8.44,-0.06,-0.06,255,0,1,30.0
1782723833.046157,18:03:53.046,1058,13.474,24.93,1011.78,0.18,0.119,0.45,0.0,8.31,-0.06,-0.06,255,1,1,29.75
1782723833.046165,18:03:53.046,1059,13.484,24.93,1011.78,0.18,0.123,0.45,0.0,8.19,-0.06,-0.06,255,1,1,30.0
1782723833.046171,18:03:53.046,1060,13.494,24.93,1011.78,0.18,0.128,0.45,0.0,8.19,-0.06,-0.06,255,1,1,30.0
1782723833.046213,18:03:53.046,1061,13.504,24.93,1011.78,0.18,0.132,0.45,0.0,7.94,-0.06,-0.06,255,1,1,30.0
1782723833.046220,18:03:53.046,1062,13.514,24.93,1011.79,0.093,0.128,-0.208,0.0,7.94,-0.06,-0.06,255,0,1,30.0
1782723833.046531,18:03:53.046,1063,13.524,24.93,1011.79,0.093,0.126,-0.208,0.0,7.75,-0.06,-0.06,255,0,1,30.0
1782723833.046539,18:03:53.046,1064,13.534,24.93,1011.79,0.093,0.124,-0.208,0.0,7.75,-0.06,-0.06,255,0,1,30.0
1782723833.046545,18:03:53.046,1065,13.544,24.93,1011.79,0.093,0.122,-0.208,0.0,7.56,-0.06,-0.06,255,0,1,30.0
1782723833.046550,18:03:53.046,1066,13.554,24.93,1011.79,0.093,0.12,-0.208,0.0,7.56,-0.06,-0.06,255,0,1,30.0
1782723833.046556,18:03:53.046,1067,13.564,24.93,1011.79,0.093,0.113,-0.156,0.0,7.31,-0.06,-0.06,255,0,1,30.0
1782723833.046561,18:03:53.046,1068,13.574,24.93,1011.79,0.093,0.111,-0.156,0.0,7.31,-0.06,-0.06,255,0,1,30.0
1782723833.149221,18:03:53.149,1069,13.584,24.93,1011.79,0.093,0.11,-0.156,0.0,7.31,-0.06,-0.06,255,0,1,30.0
1782723833.149336,18:03:53.149,1070,13.594,24.93,1011.79,0.093,0.108,-0.156,0.0,7.0,-8.5,-19.31,255,0,1,30.0
1782723833.149346,18:03:53.149,1071,13.604,24.93,1011.79,0.093,0.107,-0.156,0.0,7.0,-8.5,-19.31,255,0,1,30.0
1782723833.149352,18:03:53.149,1072,13.614,24.93,1011.79,0.093,0.103,-0.117,0.0,7.0,-8.5,-19.31,255,0,1,30.0
1782723833.149357,18:03:53.149,1073,13.624,24.93,1011.79,0.093,0.101,-0.117,0.0,7.0,-8.5,-19.31,255,0,1,30.0
1782723833.149363,18:03:53.149,1074,13.634,24.93,1011.79,0.093,0.1,-0.117,0.0,7.0,-8.5,-19.31,255,0,1,30.0
1782723833.149587,18:03:53.149,1075,13.644,24.93,1011.79,0.093,0.099,-0.117,0.0,6.56,-9.06,-6.0,255,0,1,30.0
1782723833.149599,18:03:53.149,1076,13.654,24.93,1011.79,0.093,0.098,-0.117,0.0,6.56,-9.06,-6.0,255,0,1,30.0
1782723833.149605,18:03:53.149,1077,13.664,24.93,1011.79,0.093,0.096,-0.088,0.0,6.56,-9.06,-6.0,255,0,1,30.0
1782723833.149611,18:03:53.149,1078,13.674,24.93,1011.79,0.093,0.095,-0.088,0.0,6.56,-9.06,-6.0,255,0,1,30.0
1782723833.149616,18:03:53.149,1079,13.684,24.93,1011.79,0.093,0.094,-0.088,0.0,6.56,-9.06,-6.0,255,0,1,30.0
1782723833.252404,18:03:53.252,1080,13.694,24.93,1011.79,0.093,0.093,-0.088,0.0,6.56,-9.06,-6.0,255,0,1,30.0
1782723833.252428,18:03:53.252,1081,13.704,24.93,1011.79,0.093,0.093,-0.066,0.0,6.25,-9.19,-25.06,255,0,1,30.0
1782723833.252435,18:03:53.252,1082,13.714,24.93,1011.79,0.093,0.092,-0.066,0.0,6.25,-9.19,-25.06,255,0,1,30.0
1782723833.252441,18:03:53.252,1083,13.724,24.93,1011.79,0.093,0.091,-0.066,0.0,6.25,-9.19,-25.06,255,0,1,30.0
1782723833.252446,18:03:53.252,1084,13.734,24.93,1011.79,0.093,0.091,-0.066,0.0,6.25,-9.19,-25.06,255,0,1,30.0
1782723833.252451,18:03:53.252,1085,13.744,24.93,1011.79,0.093,0.09,-0.066,0.0,5.94,-9.63,-27.75,255,0,1,30.0
1782723833.252752,18:03:53.252,1086,13.754,24.93,1011.79,0.093,0.09,-0.049,0.0,5.94,-9.63,-27.75,255,0,1,30.0
1782723833.252760,18:03:53.252,1087,13.764,24.93,1011.79,0.093,0.09,-0.049,0.0,5.94,-9.75,-12.81,255,0,1,30.0
1782723833.252766,18:03:53.252,1088,13.774,24.93,1011.79,0.093,0.089,-0.049,0.0,5.94,-9.75,-12.81,255,0,1,30.0
1782723833.252772,18:03:53.252,1089,13.784,24.93,1011.79,0.093,0.089,-0.049,0.0,5.94,-9.75,-12.81,255,0,1,30.0
1782723833.252777,18:03:53.252,1090,13.794,24.93,1011.79,0.093,0.088,-0.049,0.0,5.94,-9.75,-12.81,255,0,1,30.0
1782723833.355571,18:03:53.355,1091,13.804,24.93,1011.79,0.093,0.089,-0.037,0.0,5.5,-10.13,-14.31,255,0,1,30.0
1782723833.355597,18:03:53.355,1092,13.814,24.93,1011.79,0.093,0.088,-0.037,0.0,5.5,-10.13,-14.31,255,0,1,30.0
1782723833.355605,18:03:53.355,1093,13.824,24.93,1011.79,0.093,0.088,-0.037,0.0,5.5,-10.13,-14.31,255,0,1,30.0
1782723833.355611,18:03:53.355,1094,13.834,24.93,1011.79,0.093,0.088,-0.037,0.0,5.5,-10.13,-14.31,255,0,1,30.0
1782723833.355617,18:03:53.355,1095,13.844,24.93,1011.79,0.093,0.087,-0.037,0.0,5.5,-10.13,-14.31,255,0,1,30.0
1782723833.355622,18:03:53.355,1096,13.854,24.93,1011.8,0.005,0.071,-0.465,0.0,5.5,-10.13,-14.31,255,2,1,30.0
1782723833.355928,18:03:53.355,1097,13.864,24.93,1011.8,0.005,0.066,-0.465,0.0,5.5,-10.13,-14.31,255,2,1,30.0
1782723833.355936,18:03:53.355,1098,13.874,24.93,1011.8,0.005,0.061,-0.465,0.0,5.5,-10.13,-14.31,255,2,1,30.0
1782723833.355942,18:03:53.355,1099,13.884,24.93,1011.8,0.005,0.057,-0.465,0.0,5.5,-10.13,-14.31,255,2,1,30.0
1782723833.355947,18:03:53.355,1100,13.894,24.93,1011.8,0.005,0.043,-0.349,0.0,4.19,-10.44,-32.5,255,2,1,30.0
1782723833.355953,18:03:53.355,1101,13.904,24.93,1011.8,0.005,0.039,-0.349,0.0,4.19,-10.44,-32.5,255,2,1,30.0
1782723833.458525,18:03:53.458,1102,13.914,24.93,1011.8,0.005,0.036,-0.349,0.0,3.88,-10.56,-33.06,255,2,1,30.0
1782723833.458549,18:03:53.458,1103,13.924,24.93,1011.8,0.005,0.032,-0.349,0.0,3.88,-10.56,-33.06,255,2,1,30.0
1782723833.458558,18:03:53.458,1104,13.935,24.93,1011.8,0.005,0.028,-0.349,0.0,3.88,-10.56,-33.06,255,2,1,30.0
1782723833.458564,18:03:53.458,1105,13.944,24.93,1011.8,0.005,0.021,-0.262,0.0,3.5,-10.81,-33.75,255,2,1,30.0
1782723833.458570,18:03:53.458,1106,13.954,24.93,1011.8,0.005,0.019,-0.262,0.0,3.31,-10.81,-34.0,255,2,1,30.0
1782723833.458576,18:03:53.458,1107,13.964,24.93,1011.8,0.005,0.016,-0.262,0.0,3.31,-10.81,-34.0,255,2,1,30.0
1782723833.458856,18:03:53.458,1108,13.974,24.93,1011.8,0.005,0.013,-0.262,0.0,3.31,-10.81,-34.0,255,2,1,30.0
1782723833.458864,18:03:53.458,1109,13.984,24.93,1011.8,0.005,0.011,-0.262,0.0,3.31,-10.81,-34.0,255,2,1,30.0
1782723833.458870,18:03:53.458,1110,13.994,24.93,1011.79,0.093,0.025,0.241,0.0,3.31,-10.81,-34.0,255,0,1,30.0
1782723833.458914,18:03:53.458,1111,14.004,24.93,1011.79,0.093,0.028,0.241,0.0,2.69,-11.19,-35.5,255,0,1,30.0
1782723833.458921,18:03:53.458,1112,14.014,24.93,1011.79,0.093,0.03,0.241,0.0,2.69,-11.19,-35.5,255,0,1,30.0
1782723833.561745,18:03:53.561,1113,14.024,24.93,1011.79,0.093,0.032,0.241,0.0,2.69,-11.19,-35.5,255,0,1,30.0
1782723833.561767,18:03:53.561,1114,14.034,24.93,1011.79,0.093,0.035,0.241,0.0,2.69,-11.19,-35.5,255,0,1,30.0
1782723833.561775,18:03:53.561,1115,14.044,24.93,1011.79,0.093,0.048,0.181,0.0,2.5,-11.31,-4.06,255,0,1,30.0
1782723833.561781,18:03:53.561,1116,14.054,24.93,1011.79,0.093,0.05,0.181,0.0,2.5,-11.31,-4.25,255,0,1,30.0
1782723833.561787,18:03:53.561,1117,14.064,24.93,1011.79,0.093,0.052,0.181,0.0,2.5,-11.31,-4.5,255,0,1,30.0
1782723833.562064,18:03:53.562,1118,14.074,24.93,1011.79,0.093,0.054,0.181,0.0,2.5,-11.31,-4.5,255,0,1,30.0
1782723833.562072,18:03:53.562,1119,14.084,24.93,1011.79,0.093,0.056,0.181,0.0,2.5,-11.31,-4.88,255,0,1,30.0
1782723833.562078,18:03:53.562,1120,14.094,24.93,1011.79,0.093,0.064,0.135,0.0,2.5,-11.31,-4.88,255,0,1,30.0
1782723833.562083,18:03:53.562,1121,14.104,24.93,1011.79,0.093,0.066,0.135,0.0,2.63,-11.19,-4.88,255,0,1,30.0
1782723833.562089,18:03:53.562,1122,14.114,24.93,1011.79,0.093,0.067,0.135,0.0,2.63,-11.19,-4.88,255,0,1,30.0
1782723833.664965,18:03:53.664,1123,14.124,24.93,1011.79,0.093,0.069,0.135,0.0,2.63,-11.19,-5.0,255,0,1,30.0
1782723833.664995,18:03:53.664,1124,14.134,24.93,1011.79,0.093,0.074,0.102,0.0,2.63,-11.19,-5.19,255,0,1,30.0
1782723833.665003,18:03:53.665,1125,14.144,24.93,1011.79,0.093,0.076,0.102,0.0,2.63,-11.06,-5.31,255,0,1,30.0
1782723833.665009,18:03:53.665,1126,14.154,24.93,1011.79,0.093,0.077,0.102,0.0,2.63,-11.06,-5.31,255,0,1,30.0
1782723833.665015,18:03:53.665,1127,14.164,24.93,1011.79,0.093,0.078,0.102,0.0,2.63,-11.06,-5.31,255,0,1,30.0
1782723833.665020,18:03:53.665,1128,14.174,24.93,1011.79,0.093,0.079,0.102,0.0,2.63,-11.06,-5.31,255,0,1,30.0
1782723833.767777,18:03:53.767,1129,14.184,24.93,1011.79,0.093,0.082,0.076,0.0,2.75,-10.94,-5.31,255,0,1,30.0
1782723833.767802,18:03:53.767,1130,14.194,24.93,1011.79,0.093,0.083,0.076,0.0,2.75,-10.94,-5.31,255,0,1,30.0
1782723833.767809,18:03:53.767,1131,14.204,24.93,1011.79,0.093,0.084,0.076,0.0,2.88,-10.75,-5.31,255,0,1,30.0
1782723833.767815,18:03:53.767,1132,14.214,24.93,1011.79,0.093,0.085,0.076,0.0,2.88,-10.75,-5.31,255,0,1,30.0
1782723833.767821,18:03:53.767,1133,14.224,24.93,1011.79,0.093,0.085,0.076,0.0,2.88,-10.75,-5.31,255,0,1,30.0
1782723833.767826,18:03:53.767,1134,14.234,24.93,1011.8,0.005,0.07,-0.379,0.0,3.0,-10.63,-5.31,255,2,1,30.0
1782723833.768115,18:03:53.768,1135,14.244,24.93,1011.8,0.005,0.066,-0.379,0.0,3.0,-10.63,-5.31,255,2,1,30.0
1782723833.768123,18:03:53.768,1136,14.254,24.93,1011.8,0.005,0.062,-0.379,0.0,3.0,-10.63,-5.13,255,2,1,30.0
1782723833.768129,18:03:53.768,1137,14.264,24.93,1011.8,0.005,0.059,-0.379,0.0,3.0,-10.63,-5.13,255,2,1,30.0
1782723833.768134,18:03:53.768,1138,14.274,24.93,1011.8,0.005,0.055,-0.379,0.0,3.0,-10.63,-5.13,255,2,1,30.0
1782723833.768140,18:03:53.768,1139,14.284,24.93,1011.8,0.005,0.042,-0.284,0.0,3.13,-10.63,-5.0,255,2,1,30.0
1782723833.871027,18:03:53.871,1140,14.294,24.93,1011.8,0.005,0.039,-0.284,0.0,3.13,-10.44,-5.0,255,2,1,30.0
1782723833.871053,18:03:53.871,1141,14.304,24.93,1011.8,0.005,0.036,-0.284,0.0,3.25,-10.44,-5.0,255,2,1,30.0
1782723833.871060,18:03:53.871,1142,14.314,24.93,1011.8,0.005,0.033,-0.284,0.0,3.25,-10.25,-4.88,255,2,1,30.0
1782723833.871066,18:03:53.871,1143,14.324,24.93,1011.8,0.005,0.026,-0.213,0.0,3.25,-10.25,-4.88,255,2,1,30.0
1782723833.871072,18:03:53.871,1144,14.334,24.93,1011.8,0.005,0.023,-0.213,0.0,3.25,-10.25,-4.88,255,2,1,30.0
1782723833.871372,18:03:53.871,1145,14.344,24.93,1011.8,0.005,0.021,-0.213,0.0,3.56,-9.94,-4.13,255,2,1,30.0
1782723833.871380,18:03:53.871,1146,14.354,24.93,1011.8,0.005,0.019,-0.213,0.0,3.56,-9.94,-4.13,255,2,1,30.0
1782723833.871385,18:03:53.871,1147,14.364,24.93,1011.8,0.005,0.017,-0.213,0.0,3.56,-9.94,-35.56,255,2,1,30.0
1782723833.871390,18:03:53.871,1148,14.374,24.93,1011.8,0.005,0.013,-0.16,0.0,3.56,-9.94,-35.56,255,2,1,30.0
1782723833.871396,18:03:53.871,1149,14.384,24.93,1011.8,0.005,0.011,-0.16,0.0,3.56,-9.94,-35.56,255,2,1,30.0
1782723833.871409,18:03:53.871,1150,14.394,24.93,1011.8,0.005,0.01,-0.16,0.0,3.81,-9.69,-34.38,255,2,1,30.0
1782723833.974349,18:03:53.974,1151,14.404,24.93,1011.8,0.005,0.008,-0.16,0.0,3.81,-9.56,-33.94,255,2,1,30.0
1782723833.974372,18:03:53.974,1152,14.414,24.93,1011.8,0.005,0.007,-0.16,0.0,3.94,-9.44,-33.63,255,2,1,30.0
1782723833.974380,18:03:53.974,1153,14.424,24.93,1011.8,0.005,0.005,-0.12,0.0,4.06,-9.31,-33.31,255,2,1,30.0
1782723833.974386,18:03:53.974,1154,14.434,24.93,1011.8,0.005,0.004,-0.12,0.0,4.06,-9.31,-33.31,255,2,1,30.0
1782723833.974391,18:03:53.974,1155,14.444,24.93,1011.8,0.005,0.003,-0.12,0.0,4.38,-9.13,-32.56,255,2,1,30.0
1782723833.974397,18:03:53.974,1156,14.454,24.93,1011.8,0.005,0.001,-0.12,0.0,4.56,-9.13,-32.13,255,2,1,30.0
1782723833.974691,18:03:53.974,1157,14.464,24.93,1011.8,0.005,0.0,-0.12,0.0,4.69,-8.94,-15.81,255,2,1,30.0
1782723833.974698,18:03:53.974,1158,14.474,24.93,1011.8,0.005,0.0,-0.09,0.0,4.69,-8.81,-15.5,255,0,1,30.0
1782723833.974704,18:03:53.974,1159,14.484,24.93,1011.8,0.005,-0.001,-0.09,0.0,4.81,-8.69,-15.19,255,0,1,30.0
1782723833.974710,18:03:53.974,1160,14.494,24.93,1011.8,0.005,-0.001,-0.09,0.0,4.94,-8.56,-14.75,255,0,1,30.0
1782723833.974753,18:03:53.974,1161,14.504,24.93,1011.8,0.005,-0.002,-0.09,0.0,4.94,-8.44,-14.25,255,0,1,30.0
1782723833.974759,18:03:53.974,1162,14.514,24.93,1011.8,0.005,-0.002,-0.067,0.0,5.19,-8.31,-13.63,255,0,1,30.0
1782723834.077682,18:03:54.077,1163,14.524,24.93,1011.8,0.005,-0.002,-0.067,0.0,5.38,-8.13,-12.88,255,0,1,30.0
1782723834.077707,18:03:54.077,1164,14.534,24.93,1011.8,0.005,-0.003,-0.067,0.0,5.38,-8.13,-12.88,255,0,1,30.0
1782723834.077714,18:03:54.077,1165,14.544,24.93,1011.8,0.005,-0.004,-0.067,0.0,5.38,-8.13,-12.88,255,0,1,30.0
1782723834.077721,18:03:54.077,1166,14.554,24.93,1011.8,0.005,-0.004,-0.067,0.0,5.88,-0.06,-0.06,255,0,1,30.0
1782723834.077727,18:03:54.077,1167,14.564,24.93,1011.8,0.005,-0.003,-0.051,0.0,6.0,-0.06,-0.06,255,0,1,30.0
1782723834.078032,18:03:54.078,1168,14.574,24.93,1011.8,0.005,-0.003,-0.051,0.0,6.13,-0.06,-0.06,255,0,1,30.0
1782723834.078039,18:03:54.078,1169,14.584,24.93,1011.8,0.005,-0.004,-0.051,0.0,6.13,-0.06,-0.06,255,0,1,30.0
1782723834.078045,18:03:54.078,1170,14.594,24.93,1011.8,0.005,-0.004,-0.051,0.0,6.31,-0.06,-0.06,255,0,1,30.0
1782723834.078050,18:03:54.078,1171,14.604,24.93,1011.8,0.005,-0.005,-0.051,0.0,6.44,-0.06,-0.06,255,0,1,30.0
1782723834.078056,18:03:54.078,1172,14.614,24.93,1011.8,0.005,-0.003,-0.038,0.0,6.44,-0.06,-0.06,255,0,1,30.0
1782723834.078062,18:03:54.078,1173,14.624,24.93,1011.8,0.005,-0.004,-0.038,0.0,6.75,-0.06,-0.06,255,0,1,30.0
1782723834.181052,18:03:54.181,1174,14.634,24.93,1011.8,0.005,-0.004,-0.038,0.0,6.75,-0.06,-0.06,255,0,1,30.0
1782723834.181170,18:03:54.181,1175,14.644,24.93,1011.8,0.005,-0.004,-0.038,0.0,6.94,-0.06,-0.06,255,0,1,30.0
1782723834.181179,18:03:54.181,1176,14.654,24.93,1011.8,0.005,-0.005,-0.038,0.0,6.94,-0.06,-0.06,255,0,1,30.0
1782723834.181185,18:03:54.181,1177,14.664,24.93,1011.8,0.005,-0.003,-0.028,0.0,7.13,-0.06,-0.06,255,0,1,30.0
1782723834.181190,18:03:54.181,1178,14.674,24.93,1011.8,0.005,-0.003,-0.028,0.0,7.13,-0.06,-0.06,255,0,1,30.0
1782723834.181425,18:03:54.181,1179,14.684,24.93,1011.8,0.005,-0.004,-0.028,0.0,7.25,-0.06,-0.06,255,0,1,30.0
1782723834.181432,18:03:54.181,1180,14.694,24.93,1011.8,0.005,-0.004,-0.028,0.0,7.25,-0.06,-0.06,255,0,1,30.0
1782723834.181437,18:03:54.181,1181,14.704,24.93,1011.79,0.093,0.015,0.524,0.0,7.44,-0.06,-0.06,255,1,1,30.0
1782723834.181443,18:03:54.181,1182,14.714,24.93,1011.79,0.093,0.021,0.524,0.0,7.56,-0.06,-0.06,255,1,1,30.0
1782723834.181448,18:03:54.181,1183,14.724,24.93,1011.79,0.093,0.026,0.524,0.0,7.56,-0.06,-0.06,255,1,1,30.0
1782723834.181454,18:03:54.181,1184,14.734,24.93,1011.79,0.093,0.031,0.524,0.0,7.56,-0.06,-0.06,255,1,1,30.0
1782723834.284432,18:03:54.284,1185,14.744,24.93,1011.79,0.093,0.036,0.524,0.0,7.56,-0.06,-0.06,255,1,1,30.0
1782723834.284455,18:03:54.284,1186,14.754,24.93,1011.8,0.005,0.034,-0.044,0.0,8.0,-0.06,-0.06,255,0,1,30.0
1782723834.284462,18:03:54.284,1187,14.764,24.93,1011.8,0.005,0.034,-0.044,0.0,8.0,-0.06,-0.06,255,0,1,30.0
1782723834.284468,18:03:54.284,1188,14.774,24.93,1011.8,0.005,0.033,-0.044,0.0,8.25,-0.06,-0.06,255,0,1,30.0
1782723834.284474,18:03:54.284,1189,14.784,24.93,1011.8,0.005,0.033,-0.044,0.0,8.44,-0.06,-0.06,255,0,1,30.0
1782723834.284771,18:03:54.284,1190,14.794,24.93,1011.8,0.005,0.033,-0.044,0.0,8.56,-0.06,-0.06,255,0,1,30.0
1782723834.284780,18:03:54.284,1191,14.804,24.93,1011.8,0.005,0.027,-0.033,0.0,8.69,-0.06,-0.06,255,0,1,30.0
1782723834.284785,18:03:54.284,1192,14.814,24.93,1011.8,0.005,0.026,-0.033,0.0,8.69,-0.06,-0.06,255,0,1,30.0
1782723834.284791,18:03:54.284,1193,14.824,24.93,1011.8,0.005,0.026,-0.033,0.0,8.69,-0.06,-0.06,255,0,1,30.0
1782723834.284797,18:03:54.284,1194,14.834,24.93,1011.8,0.005,0.026,-0.033,0.0,8.69,-0.06,-0.06,255,0,1,30.0
1782723834.284802,18:03:54.284,1195,14.844,24.93,1011.8,0.005,0.026,-0.033,0.0,8.69,-0.06,-0.06,255,0,1,30.0
1782723834.387869,18:03:54.387,1196,14.854,24.93,1011.8,0.005,0.021,-0.025,0.0,8.81,-0.06,-0.06,255,0,1,30.0
1782723834.387894,18:03:54.387,1197,14.864,24.93,1011.8,0.005,0.021,-0.025,0.0,8.81,-0.06,-0.06,255,0,1,30.0
1782723834.387901,18:03:54.387,1198,14.874,24.93,1011.8,0.005,0.021,-0.025,0.0,8.81,-0.06,-0.06,255,0,1,30.0
1782723834.387907,18:03:54.387,1199,14.884,24.93,1011.8,0.005,0.02,-0.025,0.0,8.94,-0.06,-0.06,255,0,1,30.0
1782723834.387913,18:03:54.387,1200,14.894,24.93,1011.8,0.005,0.02,-0.025,0.0,8.94,-0.06,-0.06,255,0,1,30.0
1782723834.387918,18:03:54.387,1201,14.904,24.93,1011.79,0.093,0.035,0.419,0.0,8.94,-0.06,-0.06,255,1,1,30.0
1782723834.490602,18:03:54.490,1202,14.914,24.93,1011.79,0.093,0.039,0.419,0.0,9.06,-0.06,-0.06,255,1,1,30.0
1782723834.490627,18:03:54.490,1203,14.924,24.93,1011.79,0.093,0.043,0.419,0.0,9.06,-0.06,-0.06,255,1,1,30.0
1782723834.490635,18:03:54.490,1204,14.934,24.93,1011.79,0.093,0.047,0.419,0.0,9.06,-0.06,-0.06,255,1,1,30.0
1782723834.490641,18:03:54.490,1205,14.944,24.93,1011.79,0.093,0.051,0.419,0.0,9.06,-0.06,-0.06,255,1,1,30.0
1782723834.490647,18:03:54.490,1206,14.954,24.93,1011.8,0.005,0.046,-0.124,0.0,9.06,-0.06,-0.06,255,0,1,30.0
1782723834.490652,18:03:54.490,1207,14.964,24.93,1011.8,0.005,0.044,-0.124,0.0,9.19,-0.06,-0.06,255,0,1,30.0
1782723834.490941,18:03:54.490,1208,14.974,24.93,1011.8,0.005,0.043,-0.124,0.0,9.19,-0.06,-0.06,255,0,1,30.0
1782723834.490949,18:03:54.490,1209,14.984,24.93,1011.8,0.005,0.042,-0.124,0.0,9.38,-0.06,-0.06,255,0,1,30.0
1782723834.490955,18:03:54.490,1210,14.994,24.93,1011.8,0.005,0.034,-0.093,0.0,9.38,-0.06,-0.06,255,0,1,30.0
1782723834.490999,18:03:54.490,1211,15.004,24.93,1011.8,0.005,0.033,-0.093,0.0,9.5,-0.06,-0.06,255,0,1,30.0
1782723834.491005,18:03:54.491,1212,15.014,24.93,1011.8,0.005,0.032,-0.093,0.0,9.5,-0.06,-0.06,255,0,1,30.0
1782723834.593528,18:03:54.593,1213,15.024,24.93,1011.8,0.005,0.031,-0.093,0.0,9.5,-0.06,-0.06,255,0,1,30.0
1782723834.593550,18:03:54.593,1214,15.034,24.93,1011.8,0.005,0.03,-0.093,0.0,9.5,-0.06,-0.06,255,0,1,30.0
1782723834.593560,18:03:54.593,1215,15.044,24.93,1011.79,0.093,0.042,0.368,0.0,9.5,-0.06,-0.06,255,1,1,30.0
1782723834.593566,18:03:54.593,1216,15.054,24.93,1011.79,0.093,0.045,0.368,0.0,9.5,-0.06,-0.06,255,1,1,30.0
1782723834.593571,18:03:54.593,1217,15.064,24.93,1011.79,0.093,0.049,0.368,0.0,9.5,-0.06,-0.06,255,1,1,30.0
1782723834.593577,18:03:54.593,1218,15.074,24.93,1011.79,0.093,0.053,0.368,0.0,9.5,-0.06,-0.06,255,1,1,30.0
1782723834.593843,18:03:54.593,1219,15.084,24.93,1011.79,0.093,0.056,0.368,0.0,9.5,-0.06,-0.06,255,1,1,30.0
1782723834.593851,18:03:54.593,1220,15.094,24.93,1011.79,0.093,0.067,0.276,0.0,9.5,-0.06,-0.06,255,1,1,30.0
1782723834.593857,18:03:54.593,1221,15.104,24.93,1011.79,0.093,0.069,0.276,0.0,9.38,-0.06,-0.06,255,1,1,30.0
1782723834.593862,18:03:54.593,1222,15.114,24.93,1011.79,0.093,0.072,0.276,0.0,9.38,-0.06,-0.06,255,1,1,30.0
1782723834.593871,18:03:54.593,1223,15.124,24.93,1011.79,0.093,0.075,0.276,0.0,9.38,-0.06,-0.06,255,1,1,30.0
1782723834.696514,18:03:54.696,1224,15.135,24.93,1011.79,0.093,0.078,0.276,0.0,9.25,-0.06,-0.06,255,1,1,30.0
1782723834.696540,18:03:54.696,1225,15.144,24.93,1011.79,0.093,0.083,0.207,0.0,9.25,-0.06,-0.06,255,1,1,30.0
1782723834.696548,18:03:54.696,1226,15.154,24.93,1011.79,0.093,0.085,0.207,0.0,9.25,-0.06,-0.06,255,1,1,30.0
1782723834.696554,18:03:54.696,1227,15.164,24.93,1011.79,0.093,0.087,0.207,0.0,9.13,-0.06,-0.06,255,1,1,30.0
1782723834.696560,18:03:54.696,1228,15.174,24.93,1011.79,0.093,0.089,0.207,0.0,9.13,-0.06,-0.06,255,1,1,30.0
1782723834.696566,18:03:54.696,1229,15.184,24.93,1011.8,0.005,0.074,-0.393,0.0,9.13,-0.06,-0.06,255,0,1,30.0
1782723834.696897,18:03:54.696,1230,15.194,24.93,1011.8,0.005,0.07,-0.393,0.0,9.13,-0.06,-0.06,255,2,1,30.0
1782723834.696905,18:03:54.696,1231,15.204,24.93,1011.8,0.005,0.066,-0.393,0.0,8.38,-0.06,-0.06,255,2,1,30.0
1782723834.696911,18:03:54.696,1232,15.214,24.93,1011.8,0.005,0.062,-0.393,0.0,8.13,-0.06,-0.06,255,2,1,30.0
1782723834.696916,18:03:54.696,1233,15.224,24.93,1011.8,0.005,0.058,-0.393,0.0,7.88,-0.06,-0.06,255,2,1,30.0
1782723834.696921,18:03:54.696,1234,15.234,24.93,1011.8,0.005,0.045,-0.295,0.0,7.63,-0.06,-0.06,255,2,1,30.0
1782723834.696927,18:03:54.696,1235,15.244,24.93,1011.8,0.005,0.042,-0.295,0.0,7.38,-0.06,-0.06,255,2,1,30.0
1782723834.800014,18:03:54.800,1236,15.254,24.93,1011.8,0.005,0.039,-0.295,0.0,7.13,-0.06,-0.06,255,2,1,30.0
1782723834.800037,18:03:54.800,1237,15.264,24.93,1011.8,0.005,0.036,-0.295,0.0,6.88,-0.06,-0.06,255,2,1,30.0
1782723834.800044,18:03:54.800,1238,15.274,24.93,1011.8,0.005,0.033,-0.295,0.0,6.56,-0.06,-0.06,255,2,1,30.0
1782723834.800050,18:03:54.800,1239,15.284,24.93,1011.8,0.005,0.025,-0.221,0.0,6.31,-0.06,-0.06,255,2,1,30.0
1782723834.800055,18:03:54.800,1240,15.294,24.93,1011.8,0.005,0.023,-0.221,0.0,6.06,-0.06,-0.06,255,2,1,30.0
1782723834.800061,18:03:54.800,1241,15.304,24.93,1011.8,0.005,0.021,-0.221,0.0,5.81,-0.06,-0.06,255,2,1,30.0
1782723834.800344,18:03:54.800,1242,15.314,24.93,1011.8,0.005,0.018,-0.221,0.0,5.81,-0.06,-0.06,255,2,1,30.0
1782723834.800352,18:03:54.800,1243,15.324,24.93,1011.8,0.005,0.016,-0.221,0.0,5.38,-0.06,-0.06,255,2,1,30.0
1782723834.800358,18:03:54.800,1244,15.334,24.93,1011.8,0.005,0.012,-0.166,0.0,5.38,-0.06,-0.06,255,2,1,30.0
1782723834.800363,18:03:54.800,1245,15.344,24.93,1011.8,0.005,0.011,-0.166,0.0,5.38,-0.06,-0.06,255,2,1,30.0
1782723834.800368,18:03:54.800,1246,15.354,24.93,1011.8,0.005,0.009,-0.166,0.0,5.38,-0.06,-0.06,255,2,1,30.0
1782723834.800374,18:03:54.800,1247,15.364,24.93,1011.8,0.005,0.007,-0.166,0.0,5.13,-0.06,-0.06,255,2,1,30.0
1782723834.903475,18:03:54.903,1248,15.374,24.93,1011.8,0.005,0.006,-0.124,0.0,5.13,-0.06,-0.06,255,2,1,30.0
1782723834.903496,18:03:54.903,1249,15.384,24.93,1011.8,0.005,0.004,-0.124,0.0,5.13,-0.06,-0.06,255,2,1,30.0
1782723834.903503,18:03:54.903,1250,15.394,24.93,1011.8,0.005,0.003,-0.124,0.0,4.94,-0.06,-0.06,255,2,1,30.0
1782723834.903508,18:03:54.903,1251,15.404,24.93,1011.8,0.005,0.002,-0.124,0.0,4.94,-0.06,-0.06,255,2,1,30.0
1782723834.903515,18:03:54.903,1252,15.414,24.93,1011.8,0.005,0.001,-0.124,0.0,4.75,-0.06,-0.06,255,2,1,30.0
1782723835.006732,18:03:55.006,1253,15.424,24.93,1011.8,0.005,0.001,-0.093,0.0,4.63,-0.06,-0.06,255,0,1,30.0
1782723835.006760,18:03:55.006,1254,15.434,24.93,1011.8,0.005,0.0,-0.093,0.0,4.63,-0.06,-0.06,255,0,1,30.0
1782723835.006767,18:03:55.006,1255,15.444,24.93,1011.8,0.005,-0.001,-0.093,0.0,4.5,-0.06,-0.06,255,0,1,30.0
1782723835.006774,18:03:55.006,1256,15.454,24.93,1011.8,0.005,-0.002,-0.093,0.0,4.5,-0.06,-0.06,255,0,1,30.0
1782723835.006779,18:03:55.006,1257,15.464,24.93,1011.8,0.005,-0.003,-0.093,0.0,4.5,-0.06,-0.06,255,0,1,30.0
1782723835.006785,18:03:55.006,1258,15.474,24.93,1011.8,0.005,-0.002,-0.07,0.0,4.5,-0.06,-0.06,255,0,1,30.0
1782723835.007075,18:03:55.007,1259,15.484,24.93,1011.8,0.005,-0.003,-0.07,0.0,4.5,-0.06,-0.06,255,0,1,30.0
1782723835.007084,18:03:55.007,1260,15.494,24.93,1011.8,0.005,-0.004,-0.07,0.0,4.5,-0.06,-0.06,255,0,1,30.0
1782723835.007136,18:03:55.007,1261,15.504,24.93,1011.8,0.005,-0.004,-0.07,0.0,4.5,-0.06,-0.06,255,0,1,30.0
1782723835.007142,18:03:55.007,1262,15.514,24.93,1011.8,0.005,-0.005,-0.07,0.0,4.31,-0.06,-0.06,255,0,1,30.0
1782723835.007148,18:03:55.007,1263,15.524,24.93,1011.79,0.093,0.014,0.385,0.0,4.31,-0.06,-0.06,255,1,1,30.0
1782723835.007334,18:03:55.007,1264,15.534,24.93,1011.79,0.093,0.018,0.385,0.0,4.31,-0.06,-0.06,255,1,1,30.0
1782723835.007342,18:03:55.007,1265,15.544,24.93,1011.79,0.093,0.022,0.385,0.0,4.0,-0.06,-0.06,255,1,1,30.0
1782723835.007347,18:03:55.007,1266,15.554,24.93,1011.79,0.093,0.026,0.385,0.0,4.0,-0.06,-0.06,255,1,1,30.0
1782723835.007353,18:03:55.007,1267,15.564,24.93,1011.79,0.093,0.042,0.289,0.0,3.88,-0.06,-0.06,255,1,1,30.0
1782723835.007359,18:03:55.007,1268,15.574,24.93,1011.79,0.093,0.045,0.289,0.0,3.88,-0.06,-0.06,255,1,1,30.0
1782723835.110550,18:03:55.110,1269,15.584,24.93,1011.79,0.093,0.048,0.289,0.0,3.75,-0.06,-0.06,255,1,1,30.0
1782723835.110572,18:03:55.110,1270,15.594,24.93,1011.79,0.093,0.051,0.289,0.0,3.75,-0.06,-0.06,255,1,1,30.0
1782723835.110579,18:03:55.110,1271,15.604,24.93,1011.79,0.093,0.054,0.289,0.0,3.56,-0.06,-0.06,255,1,1,30.0
1782723835.110585,18:03:55.110,1272,15.614,24.93,1011.79,0.093,0.064,0.216,0.0,3.56,-0.06,-0.06,255,1,1,30.0
1782723835.110597,18:03:55.110,1273,15.624,24.93,1011.79,0.093,0.066,0.216,0.0,3.56,-0.06,-0.06,255,1,1,30.0
1782723835.110603,18:03:55.110,1274,15.634,24.93,1011.79,0.093,0.068,0.216,0.0,3.38,-0.06,-0.06,255,1,1,30.0
1782723835.213932,18:03:55.213,1275,15.644,24.93,1011.79,0.093,0.07,0.216,0.0,3.38,-0.06,-0.06,255,1,1,30.0
1782723835.214080,18:03:55.214,1276,15.654,24.93,1011.79,0.093,0.073,0.216,0.0,3.38,-0.06,-0.06,255,1,1,30.0
1782723835.214090,18:03:55.214,1277,15.664,24.93,1011.8,0.005,0.061,-0.276,0.0,3.38,-0.06,-0.06,255,0,1,30.0
1782723835.214097,18:03:55.214,1278,15.674,24.93,1011.8,0.005,0.058,-0.276,0.0,3.38,-0.06,-0.06,255,0,1,30.0
1782723835.214102,18:03:55.214,1279,15.684,24.93,1011.8,0.005,0.055,-0.276,0.0,3.38,-0.06,-0.06,255,0,1,30.0
1782723835.214108,18:03:55.214,1280,15.694,24.93,1011.8,0.005,0.053,-0.276,0.0,3.38,-0.06,-0.06,255,0,1,30.0
1782723835.214351,18:03:55.214,1281,15.704,24.93,1011.8,0.005,0.05,-0.276,0.0,3.25,-0.06,-0.06,255,0,1,30.0
1782723835.214358,18:03:55.214,1282,15.714,24.93,1011.79,0.093,0.056,0.23,0.0,3.25,-0.06,-0.06,255,0,1,30.0
1782723835.214364,18:03:55.214,1283,15.724,24.93,1011.79,0.093,0.059,0.23,0.0,3.25,-0.06,-0.06,255,0,1,30.0
1782723835.214369,18:03:55.214,1284,15.734,24.93,1011.79,0.093,0.061,0.23,0.0,3.25,-0.06,-0.06,255,0,1,30.0
1782723835.214375,18:03:55.214,1285,15.744,24.93,1011.79,0.093,0.063,0.23,0.0,3.25,-0.06,-0.06,255,0,1,30.0
1782723835.214380,18:03:55.214,1286,15.754,24.93,1011.79,0.093,0.071,0.172,0.0,3.13,-0.06,-0.06,255,0,1,30.0
1782723835.316666,18:03:55.316,1287,15.764,24.93,1011.79,0.093,0.073,0.172,0.0,3.13,-0.06,-0.06,255,0,1,30.0
1782723835.316690,18:03:55.316,1288,15.774,24.93,1011.79,0.093,0.074,0.172,0.0,3.13,-0.06,-0.06,255,0,1,30.0
1782723835.316696,18:03:55.316,1289,15.784,24.93,1011.79,0.093,0.076,0.172,0.0,3.13,-0.06,-0.06,255,0,1,30.0
1782723835.316702,18:03:55.316,1290,15.794,24.93,1011.79,0.093,0.078,0.172,0.0,3.13,-0.06,-0.06,255,0,1,30.0
1782723835.316707,18:03:55.316,1291,15.804,24.93,1011.79,0.093,0.082,0.129,0.0,3.13,-0.06,-0.06,255,0,1,30.0
1782723835.316971,18:03:55.316,1292,15.814,24.93,1011.79,0.093,0.083,0.129,0.0,3.13,-0.06,-0.06,255,0,1,30.0
1782723835.316978,18:03:55.316,1293,15.824,24.93,1011.79,0.093,0.085,0.129,0.0,3.13,-0.06,-0.06,255,0,1,30.0
1782723835.316984,18:03:55.316,1294,15.834,24.93,1011.79,0.093,0.086,0.129,0.0,3.13,-0.06,-0.06,255,0,1,30.0
1782723835.316990,18:03:55.316,1295,15.844,24.93,1011.79,0.093,0.087,0.129,0.0,205.88,-8.25,-13.94,255,0,1,30.0
1782723835.316996,18:03:55.316,1296,15.854,24.93,1011.79,0.093,0.09,0.097,0.0,206.13,-8.38,-14.44,255,0,1,30.0
1782723835.420191,18:03:55.420,1297,15.864,24.93,1011.79,0.093,0.09,0.097,0.0,206.38,-8.38,-14.63,255,0,1,30.0
1782723835.420209,18:03:55.420,1298,15.874,24.93,1011.79,0.093,0.091,0.097,0.0,206.56,-8.5,-14.63,255,0,1,30.0
1782723835.420216,18:03:55.420,1299,15.884,24.93,1011.79,0.093,0.092,0.097,0.0,206.56,-8.5,-14.5,255,0,1,30.0
1782723835.420222,18:03:55.420,1300,15.894,24.93,1011.79,0.093,0.093,0.097,0.0,206.44,-8.5,-14.5,255,0,1,30.0
1782723835.420227,18:03:55.420,1301,15.904,24.93,1011.79,0.093,0.094,0.073,0.0,206.25,-8.38,-14.63,255,0,1,30.0
1782723835.420233,18:03:55.420,1302,15.914,24.93,1011.79,0.093,0.095,0.073,0.0,206.13,-8.38,-14.63,255,0,1,30.0
1782723835.420500,18:03:55.420,1303,15.924,24.93,1011.79,0.093,0.096,0.073,0.0,206.13,-8.38,-14.5,255,0,1,30.0
1782723835.420508,18:03:55.420,1304,15.934,24.93,1011.79,0.093,0.096,0.073,0.0,206.13,-8.38,-14.5,255,0,1,30.0
1782723835.420513,18:03:55.420,1305,15.944,24.93,1011.79,0.093,0.096,0.055,0.0,206.13,-8.38,-14.5,255,0,1,30.0
1782723835.420519,18:03:55.420,1306,15.954,24.93,1011.79,0.093,0.097,0.055,0.0,206.38,-8.25,-14.19,255,0,1,30.0
1782723835.420524,18:03:55.420,1307,15.964,24.93,1011.79,0.093,0.097,0.055,0.0,206.38,-8.25,-14.19,255,0,1,30.0
1782723835.522802,18:03:55.522,1308,15.974,24.93,1011.79,0.093,0.098,0.055,0.0,206.75,-8.44,-14.19,255,0,1,30.0
1782723835.522829,18:03:55.522,1309,15.984,24.93,1011.79,0.093,0.098,0.055,0.0,206.94,-8.44,-13.88,255,0,1,30.0
1782723835.522837,18:03:55.522,1310,15.994,24.93,1011.79,0.093,0.098,0.041,0.0,206.94,-8.44,-13.88,255,0,1,30.0
1782723835.522883,18:03:55.522,1311,16.004,24.93,1011.79,0.093,0.098,0.041,0.0,3.69,-8.31,-13.06,255,0,1,30.0
1782723835.522891,18:03:55.522,1312,16.014,24.93,1011.79,0.093,0.099,0.041,0.0,3.69,-8.31,-13.06,255,0,1,30.0
